City_ID,City,Cloudiness,Country,Date,Humidity,Lat,Lng,Max Temp,Windspeed
0,Avarua,90,CK,1595287801,74,-21.21,-159.78,78.8,19.46
1,Beira,40,MZ,1595287801,94,-19.84,34.84,68.0,4.7
2,Carnarvon,0,AU,1595287801,81,-24.87,113.63,51.8,8.05
3,Qaanaaq,99,GL,1595287787,71,77.48,-69.36,48.2,1.43
4,Longyearbyen,75,SJ,1595287801,87,78.22,15.64,46.4,3.36
5,Kaitangata,97,NZ,1595287801,69,-46.28,169.85,51.33,6.31
6,Samarai,88,PG,1595287750,80,-10.62,150.67,77.49,16.46
7,Mathbaria,100,BD,1595287623,84,22.29,89.96,82.08,11.1
8,Hilo,40,US,1595287802,58,19.73,-155.09,84.2,10.29
9,Ushuaia,2,AR,1595287698,92,-54.8,-68.3,28.4,4.7
10,Fortuna,20,US,1595287802,77,40.6,-124.16,63.0,13.87
11,Hermanus,1,ZA,1595287803,81,-34.42,19.23,60.01,7.0
12,Mossamedes,5,AO,1595287803,62,-15.2,12.15,65.61,1.74
13,Geraldton,0,AU,1595287804,76,-28.77,114.6,48.2,16.11
14,Mataura,76,NZ,1595287788,83,-46.19,168.86,39.0,3.0
15,Jamestown,1,US,1595287783,53,42.1,-79.24,78.01,11.41
16,Clyde River,90,CA,1595287794,100,70.47,-68.59,42.8,12.75
17,Yellowknife,40,CA,1595287804,53,62.46,-114.35,75.99,9.17
18,The Valley,20,AI,1595287805,74,18.22,-63.06,84.2,10.29
19,Mogocha,100,RU,1595287806,95,53.73,119.77,50.86,5.48
20,Nikolskoye,95,RU,1595287801,88,59.7,30.79,62.6,4.47
21,Taltal,100,CL,1595287806,67,-25.4,-70.48,59.83,2.86
22,Vaini,0,TO,1595287806,64,-21.2,-175.2,75.2,8.05
23,Leningradskiy,0,RU,1595287807,62,69.38,178.42,47.95,11.86
24,Katherine,22,AU,1595287807,25,-14.47,132.27,66.2,10.29
25,Siderno,40,IT,1595287807,88,38.28,16.3,75.99,2.24
26,Tiksi,100,RU,1595287808,89,71.69,128.87,45.66,10.29
27,Aykhal,90,RU,1595287808,93,66.0,111.5,51.8,6.71
28,Riyadh,63,SA,1595287546,11,24.69,46.72,96.8,9.17
29,Ucluelet,20,CA,1595287624,57,48.93,-125.55,75.2,9.17
30,Conde,75,BR,1595287808,88,-7.26,-34.91,73.4,4.7
31,Shingū,99,JP,1595287808,74,33.73,135.98,82.4,3.36
32,Pervomayskoye,2,RU,1595287809,72,43.92,46.71,76.84,6.2
33,Kimbe,3,PG,1595287809,59,-5.55,150.14,87.49,3.22
34,Elko,9,US,1595287801,5,41.0,-115.5,97.0,17.0
35,Acapulco de Juárez,90,MX,1595287623,79,16.86,-99.89,86.0,4.7
36,Ambon City,75,ID,1595287810,94,-3.7,128.18,79.0,3.36
37,Vardø,100,NO,1595287810,80,70.37,31.11,59.34,6.26
38,Lüderitz,0,NA,1595287810,34,-26.65,15.16,64.4,8.05
39,Lakhdenpokh'ya,97,RU,1595287810,83,61.52,30.2,64.0,0.87
40,Lárdos,0,GR,1595287811,61,36.09,28.02,80.6,9.17
41,Lakatoro,20,VU,1595287811,65,-16.1,167.42,77.0,2.24
42,Upernavik,1,GL,1595287811,53,72.79,-56.15,48.45,8.7
43,Kavieng,67,PG,1595287811,71,-2.57,150.8,84.87,9.75
44,Tasiilaq,1,GL,1595287812,87,65.61,-37.64,44.6,6.93
45,Iracoubo,100,GF,1595287812,85,5.48,-53.2,78.24,8.61
46,Yinchuan,88,CN,1595287812,43,38.47,106.27,76.73,12.37
47,São João del Rei,1,BR,1595287812,79,-21.14,-44.26,58.33,3.67
48,Tuktoyaktuk,90,CA,1595287812,81,69.45,-133.04,42.8,9.17
49,Tiarei,20,PF,1595287813,65,-17.53,-149.33,82.4,4.7
50,Puerto Ayora,93,EC,1595287784,85,-0.74,-90.35,71.01,7.0
51,Akdepe,0,TM,1595287813,34,42.06,59.38,80.6,9.17
52,Arraial do Cabo,0,BR,1595287813,84,-22.97,-42.03,70.84,18.75
53,Carutapera,55,BR,1595287814,86,-1.2,-46.02,76.06,5.75
54,Albany,81,US,1595287783,49,42.6,-73.97,87.01,7.65
55,Shahr-e Kord,20,IR,1595287578,25,32.33,50.86,64.4,4.7
56,Lorengau,29,PG,1595287814,64,-2.02,147.27,85.1,7.85
57,Yunyang,100,CN,1595287814,81,33.45,112.71,74.97,3.06
58,Ponta do Sol,40,PT,1595287814,64,32.67,-17.1,71.6,10.29
59,Punta Arenas,90,CL,1595287815,92,-53.15,-70.92,30.2,5.82
60,Kruisfontein,85,ZA,1595287815,93,-34.0,24.73,56.16,6.17
61,Torbay,90,CA,1595287815,88,47.67,-52.73,66.2,17.22
62,New Norfolk,83,AU,1595287815,89,-42.78,147.06,50.0,1.01
63,Morros,4,BR,1595287815,43,-9.45,-46.3,72.97,5.21
64,Inhambane,84,MZ,1595287816,67,-23.86,35.38,66.7,5.32
65,Cabo San Lucas,40,MX,1595287803,43,22.89,-109.91,95.0,18.34
66,Rikitea,89,PF,1595287816,59,-23.12,-134.97,68.32,13.24
67,Faanui,45,PF,1595287816,82,-16.48,-151.75,77.4,25.64
68,Xining,87,CN,1595287817,58,36.62,101.77,59.07,3.15
69,Garoowe,74,SO,1595287817,56,8.41,48.48,76.3,24.45
70,Adrar,23,MR,1595287817,21,20.5,-10.07,93.69,1.79
71,Enshi,100,CN,1595287817,87,30.3,109.48,71.26,0.25
72,Khovd,87,MN,1595287817,47,48.01,91.64,71.85,2.24
73,Korla,90,CN,1595287520,51,41.76,86.15,69.44,5.19
74,Mar del Plata,90,AR,1595287600,100,-38.0,-57.56,50.0,23.04
75,Severo-Kuril'sk,6,RU,1595287818,75,50.68,156.12,53.92,4.43
76,Cape Town,0,ZA,1595287818,93,-33.93,18.42,50.0,4.7
77,Hobyo,69,SO,1595287818,71,5.35,48.53,77.52,23.94
78,Chokurdakh,76,RU,1595287818,38,70.63,147.92,78.64,14.41
79,Port Lincoln,33,AU,1595287819,72,-34.73,135.87,53.74,5.79
80,Kirensk,7,RU,1595287819,70,57.79,108.11,57.09,2.33
81,Aksu,53,CN,1595287819,55,41.12,80.26,70.36,0.51
82,São Filipe,49,CV,1595287819,82,14.9,-24.5,76.33,7.02
83,Port Blair,100,IN,1595287820,78,11.67,92.75,80.83,4.18
84,Ribeira Grande,96,PT,1595287820,71,38.52,-28.7,69.4,3.0
85,Saskylakh,77,RU,1595287820,50,71.92,114.08,57.63,8.25
86,Bredasdorp,16,ZA,1595287782,93,-34.53,20.04,60.8,10.29
87,Hobart,75,AU,1595287719,76,-42.88,147.33,50.0,6.93
88,Muswellbrook,0,AU,1595287820,56,-32.27,150.9,48.99,5.01
89,Sambava,73,MG,1595287820,79,-14.27,50.17,68.77,14.2
90,Ola,0,RU,1595287821,63,59.58,151.28,62.8,5.75
91,Huilong,98,CN,1595287821,96,31.81,121.66,78.01,6.53
92,Kapaa,1,US,1595287669,62,22.08,-159.32,84.2,14.99
93,Ancud,90,CL,1595287821,87,-41.87,-73.82,46.4,4.7
94,Olinda,20,BR,1595287821,65,-8.01,-34.86,78.8,11.41
95,Dikson,100,RU,1595287822,95,73.51,80.55,39.78,12.73
96,Esperance,65,AU,1595287822,76,-33.87,121.9,48.2,8.05
97,Busselton,61,AU,1595287822,65,-33.65,115.33,51.01,15.52
98,Cidreira,81,BR,1595287823,77,-30.18,-50.21,66.96,6.93
99,Nelson Bay,20,AU,1595287823,66,-32.72,152.15,52.0,13.87
100,Qaqortoq,10,GL,1595287823,41,60.72,-46.03,57.2,8.05
101,Faya,77,SA,1595287823,63,18.39,42.45,66.2,6.11
102,Clarence Town,20,AU,1595287823,66,-32.58,151.78,53.01,13.87
103,Bluff,93,NZ,1595287781,83,-46.6,168.33,39.0,3.0
104,Buta,33,CD,1595287824,91,2.79,24.73,67.46,1.7
105,Kasongo-Lunda,16,CD,1595287824,34,-6.47,16.82,65.66,1.03
106,Maridi,0,SS,1595287824,96,4.92,29.47,64.94,0.85
107,Dalbandin,0,PK,1595287824,18,28.89,64.41,79.75,5.17
108,Douglas,1,US,1595287824,61,41.3,-96.17,81.0,6.93
109,Viedma,100,AR,1595287824,92,-40.81,-63.0,48.0,3.0
110,Touros,75,BR,1595287824,94,-5.2,-35.46,73.4,9.17
111,Cuamba,6,MZ,1595287825,89,-14.8,36.54,57.07,2.91
112,Saint Paul Harbor,1,US,1595287825,43,57.79,-152.41,73.4,11.41
113,Isangel,20,VU,1595287825,57,-19.55,169.27,75.2,8.05
114,Kahului,20,US,1595287732,43,20.89,-156.47,91.4,23.04
115,George Town,20,MY,1595287653,94,5.41,100.34,78.01,2.24
116,Butaritari,51,KI,1595287825,67,3.07,172.79,83.07,3.74
117,Cherskiy,94,RU,1595287825,32,68.75,161.3,74.28,6.6
118,Ketchikan,90,US,1595287826,100,55.34,-131.65,59.0,11.41
119,Atuona,52,PF,1595287799,78,-9.8,-139.03,80.1,15.41
120,Souillac,75,MU,1595287826,68,-20.52,57.52,68.0,11.41
121,Erzin,0,TR,1595287826,88,36.96,36.2,80.01,0.87
122,Kutum,15,SD,1595287826,71,14.2,24.67,72.95,6.6
123,Vao,59,NC,1595287827,63,-22.67,167.48,68.76,12.08
124,Ust-Kuyga,55,RU,1595287827,47,70.02,135.6,80.1,3.96
125,Octeville,0,FR,1595287827,76,49.63,-1.64,60.01,4.7
126,Utica,75,US,1595287827,51,43.1,-75.23,82.4,11.41
127,Karpathos,0,GR,1595287827,76,35.51,27.21,76.05,17.16
128,Lompoc,1,US,1595287827,60,34.64,-120.46,69.8,16.11
129,Castelldefels,20,ES,1595287828,78,41.28,1.97,75.99,4.7
130,Barrow,75,US,1595287828,74,71.29,-156.79,35.6,6.93
131,Central Point,1,US,1595287828,16,42.38,-122.92,100.99,10.29
132,Saint George,1,US,1595287828,10,37.1,-113.58,105.8,20.8
133,Port Alfred,0,ZA,1595287828,73,-33.59,26.89,58.39,4.09
134,Christchurch,100,NZ,1595287665,62,-43.53,172.63,57.99,5.82
135,Paramonga,16,PE,1595287829,87,-10.67,-77.83,59.7,6.91
136,Flinders,3,AU,1595287829,60,-34.58,150.86,55.99,5.99
137,Laguna,1,US,1595287762,39,38.42,-121.42,89.01,11.41
138,Saint-Philippe,75,RE,1595287829,63,-21.36,55.77,66.2,6.93
139,San Francisco,20,US,1595287755,63,37.77,-122.42,68.0,23.04
140,Acajutla,20,SV,1595287563,55,13.59,-89.83,87.8,3.67
141,Omsk,0,RU,1595287715,77,55.0,73.4,59.0,11.18
142,Znamenskoye,0,RU,1595287830,84,57.13,73.83,53.58,7.27
143,Bethel,1,US,1595287730,45,41.37,-73.41,89.01,5.82
144,Saldanha,0,ZA,1595287830,81,-33.01,17.94,48.2,2.24
145,Lábrea,35,BR,1595287830,58,-7.26,-64.8,79.56,1.5
146,Esmeraldas,75,BR,1595287830,68,-19.76,-44.31,68.0,5.82
147,Soyo,1,AO,1595287830,91,-6.13,12.37,70.81,4.99
148,Yulara,90,AU,1595287830,93,-25.24,130.99,50.0,10.29
149,Necochea,100,AR,1595287830,95,-38.55,-58.74,52.0,15.01
150,Riverton,0,US,1595287831,15,40.52,-111.94,91.99,5.01
151,Udachny,90,RU,1595287831,93,66.42,112.4,51.8,6.71
152,Abu Kamal,0,SY,1595287831,18,34.45,40.92,87.39,14.09
153,Kota Belud,20,MY,1595287831,88,6.35,116.43,78.8,4.7
154,Lata,36,PT,1595287831,72,40.16,-8.33,70.0,3.27
155,Cap Malheureux,64,MU,1595287832,53,-19.98,57.61,70.0,7.0
156,Buin,75,CL,1595287832,66,-33.73,-70.75,57.2,10.29
157,Vanderhoof,52,CA,1595287832,33,54.02,-124.02,81.3,3.96
158,Shitanjing,8,CN,1595287832,50,39.23,106.34,70.95,15.23
159,Pangnirtung,75,CA,1595287833,93,66.15,-65.71,46.4,14.99
160,Vestmanna,34,FO,1595287833,93,62.16,-7.17,48.2,2.24
161,Narsaq,17,GL,1595287833,41,60.92,-46.05,57.2,8.05
162,Marsabit,92,KE,1595287835,72,2.33,37.99,60.55,16.82
163,Haines Junction,75,CA,1595287836,44,60.75,-137.51,67.1,9.28
164,Pevek,10,RU,1595287598,58,69.7,170.31,46.53,3.36
165,Middelburg,0,ZA,1595287836,52,-25.78,29.46,43.47,2.73
166,Brae,91,GB,1595287836,81,60.4,-1.35,51.8,6.93
167,Mount Gambier,90,AU,1595287836,100,-37.83,140.77,46.4,5.82
168,Los Llanos de Aridane,75,ES,1595287836,69,28.66,-17.92,73.4,18.34
169,Coahuayana Viejo,75,MX,1595287836,70,18.73,-103.68,84.2,11.41
170,São João da Barra,0,BR,1595287837,85,-21.64,-41.05,70.72,10.76
171,Nelson,91,NZ,1595287566,97,-41.28,173.28,57.0,1.01
172,Richards Bay,0,ZA,1595287837,83,-28.78,32.04,57.67,6.64
173,Aklavik,75,CA,1595287830,71,68.22,-135.01,50.0,11.41
174,Hong Kong,100,HK,1595287768,83,22.29,114.16,86.0,3.0
175,Dickinson,75,US,1595287838,83,29.46,-95.05,84.0,10.29
176,Auki,8,SB,1595287838,70,-8.77,160.7,84.47,8.39
177,Ahipara,70,NZ,1595287838,87,-35.17,173.17,59.4,10.42
178,Indianola,40,US,1595287838,57,41.36,-93.56,78.8,9.17
179,Maha Sarakham,75,TH,1595287838,100,16.18,103.3,77.0,3.36
180,Kuril'sk,70,RU,1595287839,81,45.23,147.88,60.8,4.34
181,Acaraú,65,BR,1595287839,82,-2.89,-40.12,77.38,14.7
182,Vila Franca do Campo,20,PT,1595287839,77,37.72,-25.43,66.2,5.82
183,Kinlochleven,68,GB,1595287839,87,56.71,-4.97,52.0,4.0
184,Mehrabpur,14,PK,1595287840,45,28.11,68.03,95.41,11.36
185,Salalah,90,OM,1595287840,94,17.02,54.09,80.6,5.82
186,Siswā Bāzār,100,IN,1595287840,94,27.15,83.77,77.36,8.43
187,Bagdarin,87,RU,1595287840,61,54.43,113.6,52.52,9.01
188,Port Macquarie,19,AU,1595287840,66,-31.43,152.92,52.0,1.99
189,Salamiyah,0,SY,1595287840,60,35.01,37.05,71.53,7.81
190,Ayagoz,95,KZ,1595287840,60,47.97,80.44,68.31,5.84
191,Vaitape,45,PF,1595287840,80,-16.52,-151.75,78.21,25.46
192,Bonavista,98,CA,1595287841,91,48.65,-53.11,60.4,16.22
193,Chimbote,34,PE,1595287841,86,-9.09,-78.58,61.2,8.43
194,Valparaíso,75,CL,1595287543,93,-33.04,-71.63,55.4,6.93
195,Te Anau,91,NZ,1595287841,87,-45.42,167.72,45.14,4.23
196,Nikolayevka,17,RU,1595287841,91,53.13,47.2,57.78,5.7
197,Tura,100,IN,1595287841,99,25.52,90.22,74.48,5.23
198,Khatanga,100,RU,1595287841,68,71.97,102.5,52.16,3.91
199,Ardrossan,20,GB,1595287841,76,55.65,-4.81,53.6,10.29
200,Greenlaw,31,GB,1595287842,80,55.71,-2.46,51.01,1.01
201,Nizhniy Kuranakh,74,RU,1595287842,69,58.84,125.49,70.86,7.92
202,Caborca,30,MX,1595287842,33,30.58,-111.1,95.0,5.99
203,Sarangani,25,PH,1595287842,67,5.4,125.46,84.56,5.37
204,Port Elizabeth,75,ZA,1595287842,100,-33.92,25.57,55.4,2.24
205,Alexandria,40,EG,1595287778,83,31.22,29.96,77.0,9.17
206,Bulgan,0,MN,1595287843,81,48.81,103.53,60.01,3.91
207,Oromocto,75,CA,1595287843,45,45.84,-66.48,86.0,5.82
208,Tutóia,82,BR,1595287843,84,-2.76,-42.27,77.5,3.06
209,Ternate,48,ID,1595287844,73,0.8,127.4,82.08,3.0
210,São Félix do Xingu,35,BR,1595287844,54,-6.64,-51.99,73.65,2.24
211,Saint-Paul,20,RE,1595287845,59,-21.01,55.27,66.2,16.11
212,Ayan,100,RU,1595287845,95,56.45,138.17,52.36,15.84
213,Riohacha,12,CO,1595287552,63,11.54,-72.91,88.18,8.61
214,Smoky Lake,7,CA,1595287845,63,54.12,-112.47,72.0,1.99
215,Masuguru,58,TZ,1595287845,72,-11.37,38.42,67.53,2.39
216,Sooke,20,CA,1595287845,77,48.37,-123.73,81.0,5.82
217,East London,0,ZA,1595287845,43,-33.02,27.91,62.67,5.73
218,Thompson,75,CA,1595287823,38,55.74,-97.86,75.2,3.36
219,Nome,90,US,1595287846,87,64.5,-165.41,57.0,10.29
220,Santa Isabel,0,BR,1595287846,72,-23.32,-46.22,64.4,5.82
221,Broken Hill,97,AU,1595287846,75,-31.95,141.43,46.4,10.29
222,Helong,3,CN,1595287846,56,42.54,129.0,75.88,3.18
223,Muros,2,ES,1595287846,76,42.78,-9.06,66.99,7.0
224,Sohag,0,EG,1595287846,22,26.56,31.69,86.0,10.29
225,Husavik,66,IS,1595287847,81,66.04,-17.34,48.2,4.7
226,Parrita,75,CR,1595287847,83,9.52,-84.32,73.4,3.36
227,Aksarka,38,RU,1595287847,69,66.56,67.8,56.17,9.01
228,Gamba,81,GA,1595287847,89,-2.65,10.0,70.68,2.91
229,Comodoro Rivadavia,90,AR,1595287847,86,-45.87,-67.5,41.0,10.29
230,Castro,0,BR,1595287715,85,-24.79,-50.01,56.16,4.38
231,Sangar,100,RU,1595287847,65,63.92,127.47,68.32,21.25
232,Abu Samrah,0,SY,1595287847,51,35.3,37.18,73.35,8.86
233,Cañon City,1,US,1595287848,14,38.44,-105.24,93.2,6.93
234,Chegutu,0,ZW,1595287848,84,-18.13,30.14,47.95,6.29
235,Barra de Tecoanapa,63,MX,1595287848,71,16.52,-98.75,84.92,9.17
236,Wewak,44,PG,1595287848,73,-3.55,143.63,82.67,7.56
237,Padang,64,ID,1595287848,76,-0.95,100.35,78.28,5.93
238,Port Augusta,97,AU,1595287848,100,-32.5,137.77,45.0,2.24
239,Birao,56,CF,1595287848,93,10.28,22.79,70.11,2.93
240,Nanortalik,4,GL,1595287849,66,60.14,-45.24,48.13,0.22
241,Elizabeth City,1,US,1595287843,59,36.29,-76.25,95.0,10.29
242,Krasnovishersk,19,RU,1595287849,78,60.41,57.08,53.1,7.05
243,Puerto Baquerizo Moreno,86,EC,1595287849,84,-0.9,-89.6,68.2,15.52
244,Pocosol,75,CR,1595287849,94,10.37,-84.62,73.4,6.93
245,Nuevo Progreso,0,MX,1595287849,53,23.17,-97.95,87.01,5.99
246,Isiro,0,CD,1595287850,98,2.77,27.62,64.38,1.23
247,Meulaboh,97,ID,1595287850,87,4.14,96.13,76.98,0.89
248,Katsuura,75,JP,1595287850,88,35.13,140.3,77.0,1.12
249,Kovūr,100,IN,1595287851,79,14.48,79.98,81.39,10.2
250,Nyurba,100,RU,1595287851,96,63.28,118.33,61.56,5.19
251,Broome,1,US,1595287743,47,42.25,-75.83,81.0,8.05
252,Beloha,0,MG,1595287851,77,-25.17,45.05,59.99,10.49
253,Myitkyina,100,MM,1595287852,97,25.38,97.4,73.51,1.88
254,Hithadhoo,96,MV,1595287852,77,-0.6,73.08,84.06,14.38
255,Tønder,8,DK,1595287853,71,54.93,8.87,57.2,11.41
256,Angoche,14,MZ,1595287853,84,-16.23,39.91,68.94,9.78
257,Guasdualito,75,VE,1595287853,88,7.24,-70.73,78.8,0.54
258,Pontes e Lacerda,41,BR,1595287853,40,-15.23,-59.34,77.18,3.0
259,Olafsvik,53,IS,1595287853,75,64.89,-23.71,49.1,2.93
260,Pérez,90,AR,1595287854,82,-33.0,-60.77,61.0,5.82
261,Maragogi,34,BR,1595287854,74,-9.01,-35.22,73.81,12.33
262,Mehrān,0,IR,1595287854,13,33.12,46.16,84.2,9.17
263,Khandyga,83,RU,1595287856,45,62.67,135.6,77.27,9.42
264,Seoul,75,KR,1595287849,73,37.57,126.98,77.0,0.85
265,Progreso,75,MX,1595287857,66,21.28,-89.67,88.0,4.7
266,Rāwatbhāta,98,IN,1595287857,79,24.93,75.58,81.28,14.58
267,Jinka,77,ET,1595287857,75,5.65,36.65,64.63,0.34
268,Asău,0,RO,1595287857,96,46.43,26.4,55.99,4.72
269,Mahébourg,75,MU,1595287857,68,-20.41,57.7,68.0,11.41
270,Caravelas,38,BR,1595287858,86,-17.71,-39.25,71.35,6.69
271,Saint Anthony,75,US,1595287858,47,45.02,-93.22,82.0,8.05
272,Bondo,97,CD,1595287858,95,3.81,23.69,66.36,0.54
273,Lodwar,87,KE,1595287858,40,3.12,35.6,81.9,13.33
274,Havøysund,75,NO,1595287858,100,71.0,24.66,51.8,1.12
275,Moerai,65,PF,1595287858,75,-22.43,-151.33,69.8,24.27
276,Chardara,0,KZ,1595287858,26,41.25,67.97,78.31,8.19
277,Neiafu,75,TO,1595287859,88,-18.65,-173.98,78.8,2.24
278,Umluj,41,SA,1595287859,56,25.02,37.27,85.98,8.5
279,Tripoli,0,LY,1595287728,77,32.88,13.19,75.7,8.37
280,Khanbari,100,NP,1595287821,76,27.37,87.2,71.64,0.31
281,Grand Gaube,72,MU,1595287859,53,-20.01,57.66,70.0,7.0
282,Sumbe,0,AO,1595287859,85,-11.21,13.84,69.06,8.16
283,Abu Dhabi,20,AE,1595287583,75,24.47,54.37,93.2,5.82
284,Kunming,90,CN,1595287825,100,25.04,102.72,66.0,11.18
285,Hamilton,40,US,1595287752,48,39.18,-84.53,90.0,3.36
286,San Cristobal,40,VE,1595287827,51,7.77,-72.22,84.2,20.8
287,Dongsheng,37,CN,1595287860,48,39.82,109.98,70.75,19.6
288,Harper,82,LR,1595287860,88,4.38,-7.72,76.08,9.89
289,Yerofey Pavlovich,51,RU,1595287860,85,53.97,121.97,54.86,4.68
290,Vagay,1,RU,1595287860,80,57.94,69.02,53.47,7.14
291,Ciudad Bolivar,77,VE,1595287860,78,8.12,-63.55,80.51,8.12
292,Pisco,40,PE,1595287860,82,-13.7,-76.22,62.6,11.41
293,Lazarev,100,RU,1595287861,89,52.23,141.51,58.51,13.94
294,Talalayivka,42,UA,1595287861,77,50.96,31.92,61.72,5.1
295,Nuquí,90,CO,1595287861,94,5.71,-77.27,75.2,5.82
296,Skellefteå,69,SE,1595287861,93,64.75,20.95,62.01,2.24
297,Hasaki,75,JP,1595287850,94,35.73,140.83,73.0,4.7
298,Sinnamary,100,GF,1595287813,84,5.38,-52.95,78.67,8.88
299,Luganville,20,VU,1595287861,65,-15.53,167.17,77.0,2.24
300,Tocopilla,99,CL,1595287862,63,-22.09,-70.2,60.78,6.96
301,Lang Suan,20,TH,1595287862,100,9.95,99.08,77.0,3.85
302,Spokane,1,US,1595287854,18,47.62,-117.37,91.0,4.7
303,San Fernando del Valle de Catamarca,35,AR,1595287578,66,-28.47,-65.79,62.01,1.99
304,Bubaque,100,GW,1595287862,80,11.28,-15.83,80.65,14.18
305,Nakamura,100,JP,1595287862,60,32.98,132.93,88.9,1.86
306,Dilla,55,ET,1595287862,80,6.41,38.31,60.21,1.81
307,Tafalla,0,ES,1595287862,59,42.53,-1.67,73.4,3.36
308,Beringovskiy,42,RU,1595287863,78,63.05,179.32,46.35,11.48
309,Palmer,40,US,1595287863,48,42.16,-72.33,87.8,13.87
310,Lerwick,96,GB,1595287863,81,60.15,-1.15,51.8,6.93
311,Emirdağ,0,TR,1595287863,71,39.02,31.15,64.24,4.59
312,Cannington,47,AU,1595287863,62,-32.02,115.95,53.01,12.75
313,Malanje,1,AO,1595287863,39,-9.54,16.34,55.89,2.33
314,Norman Wells,90,CA,1595287863,72,65.28,-126.83,66.2,9.17
315,Belaya Kholunitsa,100,RU,1595287864,97,58.84,50.85,61.05,9.26
316,Douentza,5,ML,1595287864,43,15.0,-2.95,89.55,11.77
317,Pingliang,70,CN,1595287864,70,35.54,106.69,66.16,5.41
318,Novyy Svit,52,UA,1595287864,66,47.81,38.02,67.87,5.12
319,Anuradhapura,100,LK,1595287864,83,8.36,80.42,76.75,7.58
320,Hambantota,100,LK,1595287864,82,6.12,81.12,79.45,9.33
321,Grajaú,28,BR,1595287864,49,-5.82,-46.14,78.39,3.83
322,Caucayá,66,CO,1595287864,95,-0.19,-74.78,72.82,0.27
323,Putyatino,77,RU,1595287865,95,54.16,41.12,57.15,6.49
324,Ostrovnoy,21,RU,1595287865,62,68.05,39.51,61.07,10.18
325,Mezen',0,RU,1595287865,81,65.85,44.24,56.46,4.85
326,Mae Hong Son,99,TH,1595287801,88,19.3,97.97,75.22,1.05
327,Paamiut,99,GL,1595287865,79,61.99,-49.67,46.04,1.9
328,Bahía Honda,76,CU,1595287865,82,22.9,-83.16,79.95,11.12
329,Airai,69,TL,1595287865,68,-8.93,125.41,63.37,3.33
330,Lebu,96,CL,1595287865,84,-37.62,-73.65,50.68,12.28
331,Chełmno,39,PL,1595287866,80,53.35,18.43,62.01,3.0
332,Kavaratti,100,IN,1595287866,79,10.57,72.64,82.63,21.54
333,Deputatsky,6,RU,1595287866,52,69.3,139.9,73.29,5.17
334,Leeton,1,AU,1595287866,100,-34.57,146.4,43.0,3.36
335,Safranbolu,17,TR,1595287866,86,41.25,32.69,62.26,1.81
336,Makkah al Mukarramah,76,SA,1595287866,46,21.43,39.83,86.67,2.51
337,Zheleznodorozhnyy,20,RU,1595287867,88,55.75,38.0,63.0,4.47
338,Crestview,1,US,1595287830,61,30.76,-86.57,86.0,4.7
339,Newport,51,GB,1595287867,74,51.59,-3.0,60.01,1.01
340,Tuatapere,88,NZ,1595287867,80,-46.13,167.68,49.64,7.85
341,Lucapa,0,AO,1595287870,34,-8.42,20.74,61.05,3.76
342,Bilibino,14,RU,1595287870,29,68.05,166.44,72.19,1.34
343,Alekseyevsk,5,RU,1595287871,68,57.84,108.35,57.56,2.62
344,Mayo,75,US,1595287871,74,38.89,-76.51,88.0,13.87
345,Lagoa,2,PT,1595287871,73,39.05,-27.98,68.67,5.39
346,Villefranche-sur-Saône,1,FR,1595287871,54,45.98,4.72,78.8,4.7
347,Shache,100,CN,1595287871,25,38.42,77.24,74.89,7.72
348,Mizdah,0,LY,1595287871,85,31.45,12.98,67.66,10.02
349,Manturovo,100,RU,1595287871,99,58.34,44.76,61.75,3.83
350,Oriximiná,12,BR,1595287872,62,-1.77,-55.87,80.42,2.44
351,Tacuarembó,100,UY,1595287766,80,-31.73,-55.98,68.02,8.21
352,Setermoen,100,NO,1595287872,100,68.86,18.35,51.8,11.41
353,Omsukchan,0,RU,1595287872,46,62.53,155.8,67.28,5.53
354,Kilifi,19,KE,1595287872,82,-3.63,39.85,73.56,13.98
355,Trairi,81,BR,1595287872,84,-3.28,-39.27,76.5,12.88
356,Abalak,0,RU,1595287873,82,58.13,68.59,52.54,7.45
357,Zyryanka,57,RU,1595287873,38,65.75,150.85,77.99,20.4
358,Tegul'det,18,RU,1595287873,98,57.31,88.17,58.82,6.62
359,Bengkulu,69,ID,1595287710,88,-3.8,102.27,75.7,5.41
360,Yebaishou,95,CN,1595287873,50,41.4,119.64,79.05,0.36
361,Ushtobe,45,KZ,1595287873,34,45.25,77.98,73.89,8.9
362,Westport,1,US,1595287873,41,41.14,-73.36,91.4,11.41
363,San Vicente,53,AR,1595287873,81,-26.62,-54.13,61.75,3.71
364,Koumac,18,NC,1595287873,59,-20.57,164.28,71.13,7.81
365,Itarema,78,BR,1595287874,82,-2.92,-39.92,77.14,14.38
366,Abay,6,KZ,1595287875,82,49.63,72.85,55.4,4.47
367,Kiruna,100,SE,1595287875,100,67.86,20.23,51.8,3.36
368,Iralaya,40,HN,1595287875,70,15.0,-83.23,87.8,8.05
369,Jacareacanga,39,BR,1595287876,50,-6.22,-57.75,77.74,1.81
370,Chui,100,UY,1595287830,82,-33.7,-53.46,68.16,9.91
371,Tomatlán,6,MX,1595287883,63,19.93,-105.25,86.49,9.22
372,Port Shepstone,0,ZA,1595287884,30,-30.74,30.45,62.1,6.02
373,Dunedin,91,NZ,1595287884,58,-45.87,170.5,54.59,8.3
374,Martapura,20,ID,1595287884,94,-3.42,114.85,75.2,3.36
375,Florida,1,US,1595287319,52,28.75,-82.5,91.4,8.05
376,Oranjemund,0,NA,1595287870,38,-28.55,16.43,62.58,3.49
377,Poum,4,NC,1595287884,62,-20.23,164.02,70.79,9.95
378,Iquique,90,CL,1595287796,72,-20.22,-70.14,60.8,6.93
379,Constitución,96,CL,1595287884,80,-35.33,-72.42,53.47,7.63
380,Bayan,23,CN,1595287884,62,46.08,127.4,75.0,11.5
381,Calabozo,98,VE,1595287884,94,8.92,-67.43,75.29,2.93
382,Marsh Harbour,87,BS,1595287885,77,26.54,-77.06,83.26,13.87
383,Trincomalee,99,LK,1595287885,72,8.57,81.23,81.19,10.42
384,Goderich,17,CA,1595287885,77,43.75,-81.72,70.0,8.59
385,Port Hardy,75,CA,1595287885,77,50.7,-127.42,64.4,10.29
386,Yenagoa,97,NG,1595287885,93,4.92,6.26,74.14,3.98
387,Baykit,2,RU,1595287885,63,61.67,96.37,59.38,1.95
388,Dubbo,0,AU,1595287885,93,-32.25,148.62,39.2,6.93
389,Palu,22,ID,1595287788,79,-0.89,119.87,76.14,3.15
390,Cocobeach,20,GA,1595287885,83,1.0,9.58,77.0,6.93
391,Altoona,1,US,1595287634,46,40.52,-78.39,88.0,6.71
392,Bud,90,US,1595287886,74,39.45,-86.18,81.0,5.82
393,Churapcha,99,RU,1595287886,50,62.0,132.43,71.33,23.0
394,Boguchany,100,RU,1595287886,64,58.38,97.45,58.44,4.21
395,Kyra,65,RU,1595287886,56,49.58,111.98,57.29,3.09
396,Ilulissat,88,GL,1595287886,50,69.22,-51.1,53.6,1.12
397,Spirit River,75,CA,1595287886,47,55.78,-118.84,75.2,5.82
398,Yong’an,96,CN,1595287887,51,39.7,113.69,74.97,4.21
399,Am Timan,95,TD,1595287887,89,11.03,20.28,72.25,1.97
400,Morón,90,AR,1595287887,93,-34.65,-58.62,60.8,6.93
401,Porto Velho,21,BR,1595287779,48,-8.76,-63.9,86.0,3.36
402,Scalea,0,IT,1595287887,66,39.81,15.8,70.0,3.18
403,Tynda,17,RU,1595287887,78,55.17,124.72,63.19,6.67
404,Margate,10,GB,1595287887,70,51.38,1.39,57.99,2.66
405,Takoradze,100,GH,1595287887,92,4.88,-1.76,75.27,6.71
406,Gönen,0,TR,1595287887,88,40.1,27.65,71.6,3.36
407,Kalmunai,100,LK,1595287888,82,7.42,81.82,80.22,1.66
408,Erdemli,0,TR,1595287888,71,36.6,34.31,79.77,7.43
409,Tautira,20,PF,1595287888,65,-17.73,-149.15,82.4,4.7
410,Kostomuksha,86,RU,1595287888,82,64.57,30.58,60.28,3.0
411,Dordrecht,0,NL,1595287736,78,51.81,4.67,57.99,1.01
412,Twin Falls,1,US,1595287888,15,42.56,-114.46,91.4,16.11
413,Tombouctou,71,ML,1595287888,24,20.0,-3.0,97.95,7.0
414,Pathein,95,MM,1595287888,90,16.78,94.73,79.86,3.8
415,Ust-Tsilma,0,RU,1595287889,77,65.44,52.15,53.85,4.18
416,Canalete,75,CO,1595287889,88,8.68,-76.2,78.8,4.7
417,Lichuan,100,CN,1595287889,97,30.3,108.85,64.99,4.45
418,Manzhouli,15,CN,1595287889,50,49.6,117.43,62.92,13.0
419,Fallon,40,US,1595287889,8,39.47,-118.78,100.4,5.82
420,Magalia,40,US,1595287889,33,39.81,-121.58,93.0,8.05
421,Plácido de Castro,47,BR,1595287889,62,-10.34,-67.19,78.85,0.6
422,Atar,4,MR,1595287890,27,20.52,-13.05,93.74,5.26
423,Bambous Virieux,75,MU,1595287890,68,-20.34,57.76,70.0,11.41
424,Kamenka,31,RU,1595287890,81,51.32,42.77,63.0,4.29
425,High Level,75,CA,1595287890,60,58.52,-117.14,75.2,3.36
426,Caconda,0,AO,1595287890,57,-13.73,15.07,45.73,2.37
427,Arman',0,RU,1595287891,56,59.7,150.17,65.48,5.61
428,Madisonville,75,US,1595287834,94,37.33,-87.5,73.4,4.7
429,Bloomington,75,US,1595287659,47,44.84,-93.3,82.99,8.05
430,Pacific Grove,1,US,1595287891,68,36.62,-121.92,71.01,12.75
431,Pallasovka,90,RU,1595287891,56,50.05,46.88,69.93,9.24
432,Beibei,40,CN,1595287892,88,29.83,106.43,79.0,8.95
433,Mastic Beach,1,US,1595287892,59,40.77,-72.85,90.0,5.82
434,Chissamba,0,AO,1595287892,55,-12.17,17.33,50.09,3.47
435,Kansanshi,21,ZM,1595287892,84,-12.1,26.43,47.62,4.92
436,Baghmara,100,IN,1595287892,79,23.8,86.21,80.85,4.92
437,Oranjestad,20,AW,1595287771,79,12.52,-70.03,84.2,23.04
438,Utrera,74,ES,1595287892,27,37.19,-5.78,89.6,2.24
439,Khani,98,GE,1595287893,88,41.96,42.96,77.0,3.36
440,Aden,100,YE,1595287893,66,12.78,45.04,87.55,7.74
441,Naryan-Mar,0,RU,1595287893,75,67.67,53.09,57.02,5.19
442,Kharod,100,IN,1595287893,74,21.75,82.57,82.58,8.93
443,Voi,6,KE,1595287893,82,-3.39,38.56,65.14,9.51
444,Tual,60,ID,1595287893,84,-5.67,132.75,79.54,18.34
445,Invermere,44,CA,1595287604,30,50.52,-116.04,82.0,1.99
446,Esfarāyen,0,IR,1595287893,42,37.08,57.51,66.2,4.7
447,Gōtsuchō,75,JP,1595287894,78,35.0,132.22,82.4,3.36
448,Puliyankudi,100,IN,1595287894,70,9.17,77.42,78.6,5.23
449,Udaipur,96,IN,1595287894,87,24.57,73.69,76.77,14.94
450,Hoquiam,1,US,1595287894,68,46.98,-123.89,69.8,13.87
451,Orlik,2,RU,1595287894,49,52.52,99.83,60.66,2.68
452,Poplar Bluff,20,US,1595287894,69,36.76,-90.39,80.01,4.7
453,Sørland,82,NO,1595287890,77,67.67,12.69,53.58,6.69
454,Gornopravdinsk,0,RU,1595287894,81,60.05,69.9,52.3,6.29
455,Santa Cruz de la Sierra,40,BO,1595287790,61,-17.8,-63.17,82.4,14.99
456,Berlevåg,100,NO,1595287895,84,70.86,29.09,57.51,6.53
457,Aquiraz,75,BR,1595287895,88,-3.9,-38.39,75.2,5.82
458,Banjarmasin,20,ID,1595287895,94,-3.32,114.59,75.2,3.36
459,Marabá,0,BR,1595287895,69,-5.37,-49.12,77.0,1.3
460,Krasnosel'kup,100,RU,1595287895,61,65.7,82.47,55.96,7.16
461,Staryy Nadym,73,RU,1595287895,61,65.61,72.68,57.74,8.88
462,Nuevo Ideal,84,MX,1595287895,48,24.89,-105.07,73.06,9.04
463,Le Vauclin,75,MQ,1595287895,83,14.55,-60.84,80.6,12.75
464,Bhongīr,75,IN,1595287896,94,17.51,78.89,75.99,3.36
465,Rocha,100,UY,1595287896,81,-34.48,-54.33,67.75,4.83
466,Caohe,100,CN,1595287896,89,30.23,115.43,73.85,4.05
467,Baghdad,0,IQ,1595287716,19,33.34,44.4,89.6,11.41
468,Petropavlovsk-Kamchatskiy,20,RU,1595287896,72,53.05,158.65,60.8,6.71
469,Øksfjord,75,NO,1595287896,93,70.24,22.35,57.2,3.36
470,Lac du Bonnet,100,CA,1595287896,94,50.25,-96.06,73.99,4.25
471,Masinigudi,94,IN,1595287896,85,11.57,76.67,68.29,1.86
472,Guerrero Negro,7,MX,1595287738,40,27.98,-114.06,85.15,18.03
473,Kitui,89,KE,1595287897,86,-1.37,38.01,58.08,5.19
474,Atambua,64,ID,1595287897,65,-9.11,124.89,74.79,4.16
475,Taunggyi,96,MM,1595287897,100,20.78,97.03,64.04,3.33
476,Qurayyat,0,SA,1595287897,45,31.33,37.34,84.2,18.34
477,Mount Isa,47,AU,1595287897,27,-20.73,139.5,62.6,10.29
478,Chumikan,100,RU,1595287898,96,54.72,135.31,52.5,23.82
479,‘Āhuimanu,75,US,1595287865,54,21.44,-157.84,87.8,14.99
480,Noumea,90,NC,1595287898,72,-22.28,166.46,70.0,5.82
481,Itoman,40,JP,1595287898,83,26.12,127.67,84.2,4.7
482,Chazuta,1,PE,1595287898,77,-6.57,-76.14,75.29,0.58
483,Ballina,89,AU,1595287898,58,-28.87,153.57,59.0,10.29
484,Compostela,20,PH,1595287898,73,7.67,126.09,81.97,0.31
485,Tres Arroyos,95,AR,1595287898,79,-38.37,-60.28,49.51,12.84
486,Nur,100,PL,1595287899,89,52.67,22.32,62.2,7.58
487,Uauá,47,BR,1595287899,74,-9.84,-39.48,67.35,12.39
488,Codrington,97,AU,1595287767,81,-38.27,141.97,50.95,5.55
489,Egvekinot,59,RU,1595287899,57,66.32,-179.17,51.78,0.98
490,Mae Sai,75,TH,1595287899,100,20.43,99.88,75.99,1.16
491,Santa,0,PH,1595287899,72,17.49,120.43,82.18,4.18
492,Aldan,70,RU,1595287899,67,58.6,125.39,67.33,13.24
493,Mormugao,99,IN,1595287899,86,15.4,73.8,79.3,11.56
494,Belém,75,BR,1595287627,94,-1.46,-48.5,73.4,5.82
495,Shimoda,75,JP,1595287899,88,34.67,138.95,77.0,6.93
496,Iqaluit,75,CA,1595287811,100,63.75,-68.51,44.6,3.36
497,Sibolga,78,ID,1595287900,81,1.74,98.78,75.7,4.03
498,Melito di Porto Salvo,40,IT,1595287900,88,37.92,15.77,75.99,2.24
499,Departamento de Maldonado,100,UY,1595287900,82,-34.67,-54.92,73.0,6.93
500,Arrondissement d'Ajaccio,0,FR,1595287900,77,42.0,8.92,69.8,6.93
501,Dingle,67,PH,1595287900,80,11.0,122.67,82.62,4.41
502,Nabire,77,ID,1595287900,70,-3.37,135.48,82.83,2.84
503,Straelen,16,DE,1595287900,67,51.45,6.27,55.99,4.45
504,Naze,75,JP,1595287901,83,28.37,129.48,84.2,4.7
505,Shunyi,100,CN,1595287901,69,40.12,116.65,87.01,4.47
506,Santa Marta,20,CO,1595287871,79,11.24,-74.2,84.99,10.98
507,Biskupiec,75,PL,1595287901,93,53.86,20.96,62.6,5.82
508,Grootfontein,0,NA,1595287901,69,-19.57,18.12,41.23,2.91
509,Aginskoye,65,RU,1595287901,51,51.1,114.53,58.59,15.39
510,Zhigansk,100,RU,1595287901,98,66.77,123.37,63.54,11.43
511,Rychnov nad Kněžnou,2,CZ,1595287902,89,50.16,16.27,61.0,0.38
512,Rawson,92,AR,1595287902,78,-43.3,-65.1,44.55,17.72
513,San Patricio,40,MX,1595287902,84,19.22,-104.7,86.0,17.22
514,Solnechnyy,100,RU,1595287902,95,50.72,136.63,64.6,4.61
515,Kongolo,86,CD,1595287902,44,-5.38,27.0,75.67,3.31
516,Villa Bruzual,100,VE,1595287902,96,9.33,-69.12,74.37,3.56
517,Phan Thiet,100,VN,1595287737,84,10.93,108.1,77.83,3.51
518,Whitianga,38,NZ,1595287903,95,-36.83,175.7,62.01,1.99
519,Leopoldov,26,SK,1595287903,93,48.45,17.76,61.0,9.17
520,Karratha,0,AU,1595287903,53,-20.74,116.85,66.02,12.21
521,Chapais,90,CA,1595287903,77,49.78,-74.85,59.0,14.99
522,Kushima,75,JP,1595287903,70,31.46,131.23,86.0,13.87
523,Impfondo,48,CG,1595287903,94,1.64,18.07,69.19,1.83
524,Osa,100,RU,1595287903,94,57.28,55.46,63.18,10.78
525,Buchanan,75,LR,1595287904,94,5.88,-10.05,77.0,6.93
526,Leganés,0,ES,1595287904,28,40.33,-3.76,84.99,1.12
527,Japura,42,ID,1595287904,94,-0.32,102.35,74.25,2.26
528,Coari,95,BR,1595287904,70,-4.08,-63.14,77.86,1.81
529,Bathsheba,20,BB,1595287904,65,13.22,-59.52,82.4,18.34
530,Aste,6,IT,1595287904,98,45.79,11.1,71.01,8.99
531,Forestville,40,US,1595287904,78,38.85,-76.88,86.0,13.87
532,Tigil',6,RU,1595287904,54,57.8,158.67,65.32,5.61
533,Aasiaat,100,GL,1595287905,77,68.71,-52.87,43.75,5.23
534,Quatre Cocos,75,MU,1595287905,68,-20.21,57.76,70.0,11.41
535,Sudislavl',99,RU,1595287905,97,57.88,41.71,58.35,6.22
536,Tomé,90,CL,1595287905,87,-36.62,-72.95,55.4,9.17
537,Qasigiannguit,98,GL,1595287905,50,68.82,-51.19,53.6,1.12
538,Derzhavīnsk,83,KZ,1595287905,50,51.1,66.32,72.82,2.77
539,Lavrentiya,100,RU,1595287784,75,65.58,-171.0,46.24,5.86
540,Aitape,39,PG,1595287906,63,-3.14,142.35,85.05,3.89
541,Sittwe,100,MM,1595287906,81,20.15,92.9,81.55,7.7
542,Kamaishi,75,JP,1595287906,94,39.27,141.88,71.6,2.24
543,Srednekolymsk,47,RU,1595287906,36,67.45,153.68,78.58,15.32
544,Macusani,31,PE,1595287906,71,-14.08,-70.43,36.75,0.58
545,Eyl,57,SO,1595287906,56,7.98,49.82,80.71,23.51
546,Gusau,75,NG,1595287906,80,12.16,6.66,76.78,13.27
547,Jinxiang,98,CN,1595287907,74,22.86,115.7,84.2,2.86
548,Aras,0,ES,1595287908,64,42.56,-2.36,71.6,4.7
549,Porto San Giorgio,0,IT,1595287908,70,43.18,13.79,72.0,4.92
550,Puerto Cabezas,40,NI,1595287807,74,14.04,-83.39,84.2,4.7
551,Palana,37,RU,1595287908,63,59.12,159.97,57.74,12.26
552,Cayenne,100,GF,1595287866,88,4.93,-52.33,78.8,2.24
553,Novyy Oskol,25,RU,1595287908,82,50.76,37.87,59.76,3.69
554,Weiser,1,US,1595287908,19,44.25,-116.97,96.01,6.93
555,Nouadhibou,0,MR,1595287909,78,20.93,-17.03,75.2,3.36
556,Tsabong,0,BW,1595287909,41,-26.02,22.4,50.14,9.6
557,Coquimbo,13,CL,1595287768,87,-29.95,-71.34,53.6,4.7
558,Kununurra,12,AU,1595287900,21,-15.77,128.73,71.6,12.75
559,Primero de Enero,75,CU,1595287909,94,21.95,-78.43,73.4,10.29
560,Mīnāb,12,IR,1595287909,75,27.15,57.08,91.4,9.17
561,La Palma,20,US,1595287876,47,33.85,-118.05,86.0,8.05
562,Aswān,0,EG,1595287910,21,24.09,32.91,90.09,12.71
563,Kiryat Gat,0,IL,1595287682,66,31.61,34.76,80.01,1.88
564,Lubango,0,AO,1595287910,45,-14.92,13.49,51.39,4.0
565,Chaadayevka,19,RU,1595287910,91,53.14,45.91,56.46,4.97
566,Khawhai,100,IN,1595287910,100,23.37,93.12,62.74,1.52
567,Zapolyarnyy,75,RU,1595287910,93,69.42,30.81,57.2,3.36
568,St. George's,20,GD,1595287879,83,12.06,-61.75,82.4,19.46
569,Bukama,0,CD,1595287910,47,-9.2,25.85,61.61,2.89
570,Jinchang,99,CN,1595287911,28,38.5,102.17,76.3,0.2
571,Malakal,51,SS,1595287911,91,9.53,31.66,71.58,0.45
572,Luanda,20,AO,1595287875,88,-8.84,13.23,69.8,6.93
573,Bemidji,90,US,1595287911,49,47.47,-94.88,75.0,5.82
574,Sitka,90,US,1595287911,93,57.05,-135.33,57.2,5.82
575,Minot,90,US,1595287898,88,48.23,-101.3,64.4,5.82
576,Canavieiras,29,BR,1595287911,90,-15.68,-38.95,71.51,8.12
