City_ID,City,Cloudiness,Country,Date,Humidity,Lat,Lng,Max Temp,Windspeed
0,Ixtapa,40,MX,1595303461,79,20.7,-105.2,84.2,3.36
1,São Filipe,41,CV,1595303461,82,14.9,-24.5,75.7,9.84
2,Hilo,90,US,1595303068,65,19.73,-155.09,82.4,8.05
3,George Town,20,MY,1595303199,79,5.41,100.34,87.8,4.7
4,Astoria,1,US,1595303402,82,46.19,-123.83,62.6,10.29
5,Marrakesh,0,MA,1595303461,77,31.63,-8.01,69.8,8.05
6,Severo-Kuril'sk,42,RU,1595303462,79,50.68,156.12,54.1,1.66
7,Bengkulu,79,ID,1595303462,60,-3.8,102.27,86.56,5.3
8,Zapolyarnyy,75,RU,1595303462,93,69.42,30.81,60.8,11.41
9,Albany,3,US,1595302897,89,42.6,-73.97,77.0,4.81
10,Bariloche,90,AR,1595303462,93,-41.15,-71.31,37.0,11.41
11,Prince Rupert,90,CA,1595303246,100,54.32,-130.32,59.0,5.82
12,Torbay,75,CA,1595303462,93,47.67,-52.73,64.99,24.16
13,Namatanai,19,PG,1595303462,72,-3.67,152.43,84.61,8.01
14,Saskylakh,100,RU,1595303462,43,71.92,114.08,61.18,11.79
15,Najrān,100,SA,1595303463,57,17.49,44.13,80.6,6.93
16,Kapaa,90,US,1595303023,69,22.08,-159.32,80.6,16.11
17,Yellowknife,20,CA,1595302851,63,62.46,-114.35,70.0,8.05
18,Vaini,20,TO,1595302970,64,-21.2,-175.2,75.2,9.17
19,Nanortalik,60,GL,1595303463,63,60.14,-45.24,47.61,1.28
20,Oktyabr'skiy,0,RU,1595303463,80,54.48,53.47,66.74,2.93
21,Adrar,57,MR,1595303463,28,20.5,-10.07,91.63,5.64
22,Rikitea,91,PF,1595302967,72,-23.12,-134.97,67.24,19.57
23,Port Elizabeth,40,ZA,1595302979,100,-33.92,25.57,53.6,5.82
24,Saint Paul Harbor,40,US,1595303054,46,57.79,-152.41,73.4,9.17
25,Visnes,87,NO,1595303464,81,59.36,5.22,53.6,14.99
26,Ponta do Sol,40,PT,1595303075,77,32.67,-17.1,68.0,11.41
27,Pisco,0,PE,1595303464,87,-13.7,-76.22,55.99,4.7
28,Şuhut,0,TR,1595303464,70,38.53,30.55,61.65,5.59
29,Hithadhoo,100,MV,1595303464,76,-0.6,73.08,84.18,9.46
30,Busselton,100,AU,1595303039,43,-33.65,115.33,64.0,18.81
31,Zhezkazgan,0,KZ,1595303464,25,47.8,67.71,84.2,8.95
32,Nome,75,US,1595302832,81,64.5,-165.41,57.0,14.99
33,Mahajanga,20,MG,1595303464,60,-15.72,46.32,68.0,9.17
34,Hermanus,2,ZA,1595302971,88,-34.42,19.23,52.0,6.15
35,Dali,100,CN,1595303438,77,25.7,100.18,69.73,6.53
36,Jamestown,1,US,1595303044,77,42.1,-79.24,66.2,0.63
37,Chokurdakh,55,RU,1595303465,31,70.63,147.92,83.53,14.41
38,Castro,7,BR,1595302970,82,-24.79,-50.01,54.03,3.36
39,Port Alfred,0,ZA,1595303064,65,-33.59,26.89,58.06,5.28
40,Bluff,86,NZ,1595303035,80,-46.6,168.33,51.53,3.24
41,Cabo San Lucas,5,MX,1595302966,26,22.89,-109.91,91.4,11.43
42,Yanaul,44,RU,1595303465,83,56.27,54.93,67.28,3.8
43,Barrow,90,US,1595302985,86,71.29,-156.79,33.8,8.05
44,Zabid,99,YE,1595303466,49,14.2,43.32,88.29,10.78
45,Ōdachō-ōda,75,JP,1595303466,94,35.18,132.5,78.8,4.7
46,Tasiilaq,97,GL,1595303049,87,65.61,-37.64,42.8,3.36
47,Wanning,24,CN,1595303466,64,18.8,110.4,88.72,9.91
48,Mataura,100,NZ,1595302967,78,-46.19,168.86,50.4,3.33
49,Bose,0,IT,1595303466,63,45.46,8.01,68.0,3.36
50,Ternate,62,ID,1595303466,68,0.8,127.4,83.82,4.59
51,Ushuaia,0,AR,1595303006,92,-54.8,-68.3,28.4,4.7
52,Sortland,99,NO,1595303466,93,68.69,15.42,52.0,9.17
53,Norman Wells,90,CA,1595303050,82,65.28,-126.83,60.8,18.34
54,Nelson Bay,40,AU,1595303467,63,-32.72,152.15,61.0,17.22
55,Chapais,90,CA,1595303067,87,49.78,-74.85,53.6,10.29
56,Faya,100,SA,1595303467,77,18.39,42.45,64.4,3.74
57,Maraã,89,BR,1595303467,78,-1.83,-65.37,74.91,1.03
58,Hobart,40,AU,1595302844,54,-42.88,147.33,59.0,9.17
59,Airai,99,TL,1595303467,46,-8.93,125.41,73.81,4.16
60,Qaanaaq,38,GL,1595303074,71,77.48,-69.36,45.37,1.48
61,Upernavik,63,GL,1595303468,58,72.79,-56.15,46.9,6.08
62,Hurghada,16,EG,1595303468,33,27.26,33.81,86.0,8.05
63,Kungurtug,94,RU,1595303468,27,50.6,97.52,80.31,1.86
64,San Estanislao,40,CO,1595303468,88,10.4,-75.15,82.4,6.93
65,New Norfolk,81,AU,1595302896,74,-42.78,147.06,59.0,3.0
66,College,75,US,1595303272,72,64.86,-147.8,66.2,11.65
67,Tomatlán,79,MX,1595303469,87,19.93,-105.25,75.85,1.92
68,Rio Grande,100,BR,1595303469,84,-32.03,-52.1,66.0,9.06
69,Burnie,56,AU,1595303469,59,-41.07,145.92,53.01,18.01
70,Ust-Kuyga,98,RU,1595303469,38,70.02,135.6,88.68,11.27
71,Carnarvon,0,AU,1595303047,38,-24.87,113.63,73.4,12.75
72,Thompson,75,CA,1595302970,59,55.74,-97.86,66.2,2.73
73,Marabu,40,MY,1595303187,74,4.41,114.01,87.8,5.82
74,Bubaque,100,GW,1595303469,88,11.28,-15.83,78.08,13.87
75,Atuona,29,PF,1595303042,78,-9.8,-139.03,80.47,18.25
76,Finnsnes,75,NO,1595303470,100,69.23,17.98,50.0,12.75
77,Kaveripattinam,98,IN,1595303470,62,12.42,78.22,83.08,2.64
78,Manado,20,ID,1595303470,55,1.49,124.85,89.6,3.36
79,Cape Town,0,ZA,1595302968,66,-33.93,18.42,55.4,9.17
80,Zhigansk,100,RU,1595303470,81,66.77,123.37,66.4,14.0
81,Deputatsky,84,RU,1595303470,44,69.3,139.9,79.84,10.18
82,Cidreira,66,BR,1595303068,83,-30.18,-50.21,65.25,4.81
83,Konëvo,91,RU,1595303470,72,62.12,39.32,60.46,3.51
84,Ust'-Omchug,82,RU,1595303471,41,61.15,149.63,71.92,9.42
85,Esperance,100,AU,1595303471,66,-33.87,121.9,55.4,18.34
86,East London,75,ZA,1595303471,76,-33.02,27.91,53.6,8.05
87,Oddur,50,SO,1595303471,77,4.12,43.89,70.66,21.23
88,Karnobat,0,BG,1595303471,63,42.65,26.98,66.99,8.05
89,Touros,75,BR,1595303471,100,-5.2,-35.46,71.6,4.7
90,Mweka,0,CD,1595303471,42,-4.85,21.57,62.85,1.59
91,Santa Vitória do Palmar,96,BR,1595303472,86,-33.52,-53.37,66.18,7.27
92,Edd,100,ER,1595303472,57,13.93,41.69,89.28,5.55
93,Lagoa,0,PT,1595303472,70,39.05,-27.98,68.2,2.46
94,Amazar,100,RU,1595303472,89,53.86,120.88,54.84,3.91
95,Kaiserslautern,75,DE,1595303472,100,49.45,7.75,59.0,5.3
96,New Albany,75,US,1595303472,83,38.29,-85.82,77.0,5.82
97,Kenai,1,US,1595303356,59,60.55,-151.26,66.2,17.22
98,Panabá,14,MX,1595303472,88,21.28,-88.27,76.55,5.59
99,Ranfurly,14,NZ,1595303473,48,-45.13,170.1,61.0,5.7
100,Bethel,1,US,1595303075,83,41.37,-73.41,73.0,4.29
101,Ascension,94,US,1595303473,94,30.22,-90.9,79.0,5.32
102,Cherskiy,97,RU,1595303069,27,68.75,161.3,77.47,5.48
103,Gorgan,0,IR,1595303464,74,36.84,54.43,80.6,2.06
104,Punta Arenas,3,CL,1595303222,92,-53.15,-70.92,30.2,6.93
105,Margate,0,GB,1595303473,96,51.38,1.39,59.0,7.72
106,Puerto Ayora,99,EC,1595302975,88,-0.74,-90.35,69.01,5.01
107,Bredasdorp,21,ZA,1595303037,100,-34.53,20.04,53.6,6.93
108,Port Hedland,0,AU,1595303474,20,-20.32,118.57,82.4,12.75
109,Puerto Colombia,40,CO,1595303474,88,10.99,-74.95,82.4,6.93
110,Pevek,17,RU,1595303474,55,69.7,170.31,48.97,4.41
111,Arraial do Cabo,0,BR,1595302923,84,-22.97,-42.03,70.27,17.96
112,Yārāda,40,IN,1595303474,79,17.65,83.27,87.8,9.17
113,Souillac,75,MU,1595302982,49,-20.52,57.52,69.8,13.87
114,Angoche,18,MZ,1595303474,84,-16.23,39.91,68.07,8.52
115,Taoudenni,6,ML,1595303474,28,22.68,-3.98,93.47,6.62
116,Katsuura,100,JP,1595303474,77,35.13,140.3,82.99,1.99
117,Mareeba,90,AU,1595303475,73,-17.0,145.43,72.0,5.99
118,Lodja,0,CD,1595303475,51,-3.48,23.43,67.73,1.45
119,Arman',0,RU,1595303475,55,59.7,150.17,65.93,6.58
120,Korsakov,75,RU,1595303475,77,46.63,142.78,69.8,2.24
121,San Patricio,0,MX,1595303475,82,19.22,-104.7,79.48,8.37
122,Cockburn Town,59,TC,1595303475,78,21.46,-71.14,83.1,22.15
123,Bani Walid,1,LY,1595303475,90,31.76,13.99,66.43,3.67
124,Okhotsk,22,RU,1595303475,72,59.38,143.3,60.91,6.91
125,Vestmannaeyjar,32,IS,1595303476,69,63.44,-20.27,49.08,1.1
126,Egvekinot,3,RU,1595303476,50,66.32,-179.17,54.95,2.26
127,Rognan,100,NO,1595303476,97,67.1,15.39,51.01,5.46
128,Antalaha,13,MG,1595303476,84,-14.9,50.28,66.42,8.55
129,Rønne,45,DK,1595303476,72,55.1,14.71,59.0,12.75
130,Jambi City,70,ID,1595303331,61,-1.6,103.62,88.59,3.29
131,Berlevåg,100,NO,1595302999,93,70.86,29.09,55.4,2.24
132,Pálmonostora,0,HU,1595303477,93,46.62,19.95,64.0,2.24
133,Aklavik,75,CA,1595303477,70,68.22,-135.01,48.2,10.29
134,Dabat,99,ET,1595303477,100,12.98,37.77,52.59,3.29
135,Nuuk,100,GL,1595303477,87,64.18,-51.72,51.8,1.12
136,Makakilo City,75,US,1595303477,51,21.35,-158.09,86.0,9.17
137,Srednekolymsk,23,RU,1595303477,28,67.45,153.68,83.3,13.38
138,Abu Samrah,0,SY,1595303478,56,35.3,37.18,75.06,11.77
139,Mana,100,GF,1595303478,86,5.66,-53.78,76.77,7.34
140,Palmer,20,US,1595303478,54,42.16,-72.33,78.8,4.7
141,Uri,90,IN,1595303478,66,34.08,74.03,67.33,2.59
142,Ereymentau,85,KZ,1595303478,73,51.62,73.1,71.62,12.71
143,Mason City,1,US,1595303395,88,43.15,-93.2,66.99,4.7
144,Vanimo,43,PG,1595303478,65,-2.67,141.3,86.2,8.86
145,Finschhafen,43,PG,1595303478,74,-6.6,147.87,82.47,10.6
146,Sobolevo,47,RU,1595303478,91,54.43,31.9,59.32,5.68
147,Murgab,0,TM,1595303479,32,37.5,61.97,84.2,6.93
148,Port Hardy,75,CA,1595303479,77,50.7,-127.42,64.4,6.93
149,Provideniya,90,RU,1595303479,81,64.38,-173.3,48.2,6.71
150,Kundgol,75,IN,1595303479,88,15.25,75.25,77.0,3.36
151,Kaitangata,26,NZ,1595303072,59,-46.28,169.85,54.0,3.0
152,Bathsheba,40,BB,1595303479,69,13.22,-59.52,80.6,18.34
153,Watertown,1,US,1595303366,57,42.37,-71.18,82.4,5.82
154,Lebu,100,CL,1595303480,83,-37.62,-73.65,50.58,12.82
155,Sitka,90,US,1595303480,93,57.05,-135.33,55.4,4.7
156,Ostrovnoy,0,RU,1595303480,52,68.05,39.51,66.34,5.5
157,Mandalgovi,0,MN,1595303480,25,45.76,106.27,80.38,9.31
158,Faanui,35,PF,1595303068,82,-16.48,-151.75,77.61,25.23
159,Yulara,90,AU,1595303480,58,-25.24,130.99,59.0,12.75
160,Marevo,8,RU,1595303480,81,57.31,32.08,61.47,3.69
161,Magdagachi,46,RU,1595303480,48,53.45,125.8,69.78,11.97
162,Sechura,54,PE,1595303481,79,-5.56,-80.82,63.19,10.98
163,Luganville,40,VU,1595303481,54,-15.53,167.17,80.6,3.36
164,Coffs Harbour,34,AU,1595303302,34,-30.3,153.13,66.0,11.41
165,Turaif,0,SA,1595303481,39,31.67,38.66,80.6,9.17
166,Geraldton,0,AU,1595303481,60,-28.77,114.6,68.0,20.8
167,Dingle,56,PH,1595303481,73,11.0,122.67,85.42,4.05
168,Tel Aviv-Yafo,40,IL,1595303438,83,32.08,34.78,77.0,3.36
169,Kathu,20,TH,1595303481,70,7.92,98.33,87.8,4.7
170,Asău,1,RO,1595303482,98,46.43,26.4,55.99,5.32
171,Saint George,1,US,1595303482,12,37.1,-113.58,98.6,9.17
172,Dikson,100,RU,1595303482,95,73.51,80.55,39.72,12.55
173,Bilibino,16,RU,1595303482,26,68.05,166.44,75.96,4.74
174,Mayumba,100,GA,1595303482,91,-3.43,10.66,70.23,4.36
175,Hay River,75,CA,1595303482,72,60.82,-115.8,68.0,9.17
176,Olafsvik,98,IS,1595303482,76,64.89,-23.71,48.54,3.87
177,Los Llanos de Aridane,75,ES,1595303482,68,28.66,-17.92,71.6,19.46
178,Ribeira Grande,12,PT,1595303075,69,38.52,-28.7,68.74,1.68
179,Bam,0,IR,1595303483,14,29.11,58.36,88.63,21.3
180,Fraserburgh,66,GB,1595303483,27,57.69,-2.02,45.0,1.01
181,Longyearbyen,40,SJ,1595303483,81,78.22,15.64,48.2,6.93
182,Lorengau,63,PG,1595303066,64,-2.02,147.27,85.95,8.9
183,Nipawin,1,CA,1595303374,100,53.37,-104.0,60.8,3.36
184,Ntungamo,56,UG,1595303483,69,-0.88,29.65,65.84,2.19
185,Hamakita,100,JP,1595303483,68,34.8,137.78,86.0,7.61
186,Pacific Grove,90,US,1595302818,82,36.62,-121.92,60.01,6.93
187,Sinnamary,100,GF,1595303484,85,5.38,-52.95,77.61,8.81
188,Zhumadian,100,CN,1595303484,83,32.98,114.03,77.85,5.55
189,Mount Darwin,0,ZW,1595303066,92,-16.77,31.58,48.16,2.93
190,Krasnoborsk,98,RU,1595303484,70,61.56,45.93,63.88,6.87
191,Alice Springs,90,AU,1595303484,66,-23.7,133.88,55.4,12.75
192,Galle,99,LK,1595303404,76,6.04,80.22,82.83,3.27
193,Lang Suan,40,TH,1595303484,74,9.95,99.08,87.8,3.36
194,Cercal,23,PT,1595303484,76,37.81,-8.67,68.09,6.35
195,Igarka,76,RU,1595303485,69,67.47,86.58,55.85,9.53
196,La Ronge,75,CA,1595303485,68,55.1,-105.28,66.2,4.97
197,Nantucket,1,US,1595303485,94,41.28,-70.1,73.4,11.41
198,Lichinga,1,MZ,1595303485,100,-13.31,35.24,49.15,7.45
199,Clyde River,90,CA,1595303485,100,70.47,-68.59,42.8,10.29
200,Butaritari,75,KI,1595303064,66,3.07,172.79,83.37,3.67
201,Hudiksvall,100,SE,1595303485,90,61.73,17.1,51.49,12.48
202,Kavaratti,75,IN,1595303485,83,10.57,72.64,82.4,13.87
203,Terrace,90,CA,1595303473,93,54.52,-128.6,60.8,10.29
204,Bambous Virieux,75,MU,1595303485,49,-20.34,57.76,69.8,13.87
205,Hong Kong,22,HK,1595303396,62,22.29,114.16,90.0,8.99
206,San Salvador,40,SV,1595303221,88,13.69,-89.19,80.6,5.82
207,Lüderitz,0,NA,1595303486,34,-26.65,15.16,62.6,3.36
208,Guerrero Negro,0,MX,1595303486,72,27.98,-114.06,69.48,12.97
209,Paraná,100,AR,1595303486,85,-31.73,-60.52,59.0,5.99
210,Malanje,0,AO,1595303486,44,-9.54,16.34,52.7,2.82
211,Ous,0,RU,1595303486,53,60.91,61.52,64.74,5.95
212,Palana,14,RU,1595303487,60,59.12,159.97,57.79,13.18
213,Narsaq,78,GL,1595303487,66,60.92,-46.05,50.0,4.7
214,Puerto Escondido,100,MX,1595303429,81,15.85,-97.07,81.63,6.69
215,Tuktoyaktuk,90,CA,1595303071,80,69.45,-133.04,41.0,12.75
216,Port Blair,100,IN,1595303487,66,11.67,92.75,85.59,3.49
217,Rocha,100,UY,1595303487,84,-34.48,-54.33,65.8,5.26
218,Bandarbeyla,95,SO,1595303487,52,9.49,50.81,81.1,32.95
219,Quatre Cocos,75,MU,1595303487,49,-20.21,57.76,69.8,13.87
220,Hofn,85,IS,1595303487,74,64.25,-15.21,52.39,1.92
221,Saint-Philippe,90,RE,1595303488,59,-21.36,55.77,64.4,8.05
222,Quincy,98,US,1595303379,64,42.25,-71.0,82.4,10.29
223,Padang,20,ID,1595303488,74,-0.95,100.35,86.0,3.36
224,Sørland,100,NO,1595303488,77,67.67,12.69,53.46,6.08
225,Mahébourg,75,MU,1595303488,49,-20.41,57.7,69.8,13.87
226,Moba,93,CN,1595303488,73,33.23,105.02,65.21,3.4
227,Kiruna,80,SE,1595303488,93,67.86,20.23,50.0,5.82
228,Buala,60,SB,1595303488,80,-8.14,159.59,82.15,11.59
229,Hambantota,40,LK,1595303488,83,6.12,81.12,82.4,5.82
230,Broken Hill,92,AU,1595303489,54,-31.95,141.43,53.6,13.87
231,Anori,79,BR,1595303489,74,-3.77,-61.64,73.71,1.68
232,Constitución,99,CL,1595303489,88,-35.33,-72.42,51.49,12.82
233,Selenginsk,20,RU,1595303489,33,52.01,106.86,71.6,4.47
234,Poronaysk,100,RU,1595303489,92,49.22,143.12,57.74,8.95
235,Avarua,100,CK,1595303489,78,-21.21,-159.78,77.0,18.34
236,Yining,98,CN,1595303489,61,29.04,114.56,91.2,3.51
237,Yilan,75,TW,1595303354,56,24.76,121.75,95.0,4.7
238,Tabou,63,CI,1595303069,90,4.42,-7.35,75.09,8.1
239,Iwanai,100,JP,1595303490,63,42.97,140.51,81.43,3.2
240,Malbork,71,PL,1595303490,93,54.04,19.03,55.99,4.7
241,Quelimane,3,MZ,1595303490,95,-17.88,36.89,62.6,2.48
242,Rincon,40,US,1595303490,78,32.3,-81.24,82.4,4.7
243,Ikom,90,NG,1595303490,97,5.97,8.71,71.08,1.43
244,Dzerzhinskoye,66,RU,1595303490,67,56.83,95.23,66.92,7.09
245,Naze,75,JP,1595303491,74,28.37,129.48,86.0,4.7
246,High Level,75,CA,1595303491,73,58.52,-117.14,69.8,5.82
247,Palauig,7,PH,1595303491,65,15.44,119.9,86.63,6.08
248,Muroto-misakicho,75,JP,1595303491,88,33.28,134.15,82.4,9.17
249,Talnakh,75,RU,1595303491,93,69.49,88.4,53.6,15.66
250,Yarmouth,75,US,1595303491,78,41.71,-70.23,80.6,5.82
251,Nikolskoye,99,RU,1595303073,82,59.7,30.79,62.01,2.24
252,Cabedelo,27,BR,1595303491,83,-6.98,-34.83,74.7,15.52
253,Camacha,40,PT,1595303491,77,33.08,-16.33,69.8,17.22
254,Victor Harbor,91,AU,1595303492,80,-35.57,138.62,55.0,4.29
255,Denizli Province,0,TR,1595303250,56,37.84,29.07,68.0,12.75
256,Kefamenanu,100,ID,1595303492,47,-9.45,124.48,81.81,9.42
257,Klaksvík,20,FO,1595303492,93,62.23,-6.59,48.2,1.12
258,Okha,100,RU,1595303492,79,53.57,142.95,56.28,16.04
259,Tombouctou,34,ML,1595303492,31,20.0,-3.0,93.51,13.44
260,Pangnirtung,88,CA,1595302982,70,66.15,-65.71,51.39,2.91
261,Chokwé,0,MZ,1595303492,92,-24.53,32.98,55.06,1.97
262,Alta Floresta,0,BR,1595303493,54,-9.88,-56.09,70.03,5.03
263,Bloomfield,1,US,1595303493,61,40.81,-74.19,86.0,7.9
264,Kholodnyy,0,RU,1595303493,37,62.72,147.95,76.23,10.63
265,Leningradskiy,0,RU,1595303074,62,69.38,178.42,47.73,12.3
266,Kalulushi,0,ZM,1595303493,95,-12.84,28.09,45.41,3.83
267,Ancud,75,CL,1595303071,100,-41.87,-73.82,48.0,3.36
268,Kruisfontein,0,ZA,1595303072,93,-34.0,24.73,51.76,5.35
269,Ilulissat,100,GL,1595303493,50,69.22,-51.1,51.8,2.24
270,Qiryat Yam,0,IL,1595303494,91,32.85,35.07,75.99,1.01
271,Hasaki,75,JP,1595303494,88,35.73,140.83,82.99,5.82
272,Manokwari,99,ID,1595303494,78,-0.87,134.08,81.18,2.82
273,Elmira,1,US,1595303414,68,42.09,-76.81,71.6,3.62
274,Kloulklubed,75,PW,1595303494,62,7.04,134.26,87.8,10.29
275,Jiayuguan City,100,CN,1595303494,18,39.82,98.3,83.39,8.1
276,Arrondissement de Marseille,40,FR,1595303382,82,43.33,5.5,71.01,3.36
277,Kantunilkín,40,MX,1595303494,83,21.09,-87.45,80.6,8.05
278,Hualmay,39,PE,1595303495,84,-11.1,-77.61,59.4,6.78
279,Saint-Augustin,99,CA,1595303495,97,51.23,-58.65,61.34,9.19
280,Dordrecht,0,NL,1595303495,90,51.81,4.67,53.01,1.5
281,San Quintín,0,MX,1595303495,80,30.48,-115.95,66.58,14.99
282,Medvezh'yegorsk,100,RU,1595303495,62,62.92,34.47,65.71,0.98
283,Cesena,0,IT,1595303495,88,44.14,12.24,73.0,2.24
284,Aripuanã,92,BR,1595303496,59,-9.17,-60.63,72.91,2.28
285,Ikongo,37,MG,1595303496,76,-21.88,47.43,53.85,3.2
286,Oranjemund,0,NA,1595303496,39,-28.55,16.43,61.07,2.46
287,Mar del Plata,90,AR,1595303496,93,-38.0,-57.56,52.0,18.34
288,San Miguel,100,SV,1595303496,91,13.48,-88.18,74.98,2.37
289,Conway,65,US,1595303496,78,35.09,-92.44,80.01,4.81
290,Romny,10,UA,1595303496,80,50.75,33.47,62.91,6.38
291,Haines Junction,28,CA,1595303055,54,60.75,-137.51,61.02,6.11
292,Khatanga,83,RU,1595303063,51,71.97,102.5,58.42,4.61
293,Pemalang,3,ID,1595303497,62,-6.9,109.37,87.01,3.91
294,Flinders,7,AU,1595303497,36,-34.58,150.86,61.0,6.93
295,Ocós,20,GT,1595303497,100,14.51,-92.19,80.6,5.77
296,Nizwá,94,OM,1595303497,51,22.93,57.53,87.67,1.34
297,Abhā,100,SA,1595303497,77,18.22,42.51,64.4,5.66
298,Tazovsky,78,RU,1595303497,71,67.47,78.7,53.6,12.03
299,Alyangula,40,AU,1595303498,50,-13.85,136.42,78.8,9.17
300,Halifax,33,CA,1595303408,90,44.65,-63.57,68.0,1.01
301,San Luis de la Paz,8,MX,1595303498,75,21.3,-100.52,73.0,1.01
302,Fairbanks,75,US,1595302948,68,64.84,-147.72,66.2,3.36
303,Chaihe,0,CN,1595303498,47,44.77,129.7,82.38,7.34
304,Mossamedes,0,AO,1595303498,59,-15.2,12.15,64.98,4.43
305,Tiksi,93,RU,1595303498,80,71.69,128.87,52.07,8.77
306,Shanghai,40,CN,1595303299,70,31.22,121.46,88.0,4.47
307,Novobelokatay,83,RU,1595303499,89,55.71,58.95,64.09,11.86
308,Tautira,20,PF,1595303407,65,-17.73,-149.15,80.6,6.93
309,Batemans Bay,0,AU,1595303499,46,-35.72,150.18,62.01,1.99
310,Korla,89,CN,1595303499,78,41.76,86.15,71.01,0.67
311,Manadhoo,100,MV,1595303374,78,5.77,73.38,82.69,17.29
312,Qasigiannguit,100,GL,1595303499,50,68.82,-51.19,51.8,2.24
313,Bayir,0,TR,1595303499,60,37.27,28.22,69.8,3.36
314,Dongargaon,100,IN,1595303500,62,20.97,80.85,86.9,11.99
315,Puerto Madryn,80,AR,1595303412,83,-42.77,-65.04,43.86,14.27
316,Portland,0,US,1595303476,15,45.52,-122.68,84.99,6.35
317,Beringovskiy,81,RU,1595303500,74,63.05,179.32,47.21,9.31
318,Kiunga,90,PG,1595303500,64,-6.12,141.29,87.22,2.84
319,Kaeo,35,NZ,1595303064,3,-35.1,173.78,61.0,7.0
320,Letnik,50,RU,1595303500,61,46.01,41.27,74.61,3.53
321,Lufilufi,64,WS,1595303501,68,-13.87,-171.6,82.76,4.38
322,The Valley,20,AI,1595303501,78,18.22,-63.06,82.4,9.17
323,Dawlatabad,0,AF,1595303501,13,36.41,64.91,92.23,6.31
324,Baião,23,BR,1595303501,83,-2.79,-49.67,73.29,1.63
325,Domoni,85,KM,1595303501,75,-12.26,44.53,73.47,18.45
326,Wenling,35,CN,1595303501,52,28.37,121.36,89.01,12.73
327,Muros,8,ES,1595303072,77,42.78,-9.06,66.99,5.01
328,Liberal,20,US,1595303416,61,37.04,-100.92,78.8,18.34
329,Port-Gentil,96,GA,1595303502,82,-0.72,8.78,74.43,10.58
330,Viedma,100,AR,1595303502,91,-40.81,-63.0,46.99,1.99
331,Ouésso,97,CG,1595303502,93,1.61,16.05,70.03,2.82
332,Xiaoweizhai,100,CN,1595303502,82,26.19,107.51,74.5,11.86
333,Chui,97,UY,1595302969,88,-33.7,-53.46,64.71,6.22
334,Kuril'sk,100,RU,1595303502,84,45.23,147.88,60.67,0.92
335,Lavrentiya,100,RU,1595303502,79,65.58,-171.0,46.45,3.91
336,Mustafakemalpaşa,40,TR,1595303502,88,40.04,28.41,71.6,8.05
337,Kautokeino,76,NO,1595303503,82,69.01,23.04,60.84,6.55
338,Hobyo,91,SO,1595303503,68,5.35,48.53,78.6,25.57
339,Huánuco,42,PE,1595303503,63,-9.93,-76.24,62.26,1.16
340,Cabra,68,ES,1595303503,64,37.47,-4.44,75.99,4.27
341,Lyuban',26,BY,1595303503,90,52.8,28.0,61.27,5.32
342,Pickerington,1,US,1595303503,73,39.88,-82.75,77.0,3.36
343,Yerbogachën,73,RU,1595303073,46,61.28,108.01,65.97,9.44
344,Kaka,0,TM,1595303503,11,37.35,59.61,95.97,7.52
345,Vila Velha,75,BR,1595303504,100,-20.33,-40.29,66.2,2.24
346,Penzance,0,GB,1595303504,87,50.12,-5.54,55.0,9.17
347,Muhos,84,FI,1595303504,100,64.81,25.99,61.0,4.7
348,Meulaboh,99,ID,1595303504,73,4.14,96.13,83.46,3.53
349,Sur,92,OM,1595303504,59,22.57,59.53,89.35,8.12
350,Tiarei,20,PF,1595303504,65,-17.53,-149.33,80.6,6.93
351,Ohaeawai,33,NZ,1595303504,3,-35.35,173.88,61.0,7.0
352,Ciorăşti,20,RO,1595303504,93,45.43,27.3,59.0,3.36
353,Grand Gaube,72,MU,1595303504,70,-20.01,57.66,69.01,5.99
354,Plettenberg Bay,0,ZA,1595303505,42,-34.05,23.37,59.85,6.2
355,Kavieng,8,PG,1595303505,68,-2.57,150.8,85.59,9.93
356,Kaoma,0,ZM,1595303505,85,-14.78,24.8,45.84,5.82
357,Touho,56,NC,1595303505,55,-20.78,165.23,70.27,3.44
358,Fortuna,90,US,1595303505,93,40.6,-124.16,55.99,5.82
359,Baruun-Urt,46,MN,1595303505,34,46.68,113.28,79.2,14.7
360,Mount Isa,94,AU,1595303299,23,-20.73,139.5,77.0,9.17
361,Maracaju,0,BR,1595303505,49,-21.61,-55.17,65.61,4.41
362,Laguna,1,US,1595303506,53,38.42,-121.42,73.4,6.93
363,Hamilton,1,US,1595303287,88,39.18,-84.53,79.0,3.89
364,Lata,94,PT,1595303506,67,40.16,-8.33,71.01,1.01
365,Huarmey,21,PE,1595303506,86,-10.07,-78.15,59.76,6.44
366,Bauchi,100,NG,1595303506,88,10.5,10.0,71.74,3.8
367,Saldanha,0,ZA,1595303506,87,-33.01,17.94,44.6,3.36
368,Champagnole,88,FR,1595303506,63,46.74,5.91,66.99,1.01
369,Limbaži,98,LV,1595303506,90,57.51,24.72,61.0,3.0
370,Forsytheganj,4,BY,1595303506,84,52.63,29.73,62.38,5.39
371,Lompoc,12,US,1595303074,82,34.64,-120.46,60.8,14.99
372,Urdoma,89,RU,1595303507,71,61.75,48.54,62.15,7.54
373,Fare,56,PF,1595303507,80,-16.7,-151.02,77.72,23.94
374,Havre-St-Pierre,1,CA,1595303507,82,50.23,-63.6,64.4,11.41
375,Aksu,33,CN,1595303507,37,41.12,80.26,79.39,1.97
376,Baykit,5,RU,1595303072,36,61.67,96.37,73.33,1.88
377,Tayu,7,ID,1595303507,63,-6.54,111.05,86.63,8.19
378,Ayorou,14,NE,1595303507,46,14.73,0.92,88.48,14.18
379,Shache,100,CN,1595303508,15,38.42,77.24,86.9,17.09
380,San-Pédro,81,CI,1595303508,94,4.75,-6.64,74.21,4.79
381,Marawi,42,PH,1595303075,82,8.0,124.29,82.0,7.0
382,Papara,75,BR,1595303508,94,-3.98,-38.73,73.4,8.05
383,Beni,88,CD,1595303508,100,0.5,29.47,60.84,1.39
384,Shubarkuduk,98,KZ,1595303508,36,49.14,56.49,79.9,3.69
385,Mata,70,PT,1595303508,64,40.68,-7.46,66.99,1.01
386,Sakakah,0,SA,1595303508,12,29.97,40.21,89.6,6.93
387,Alofi,40,NU,1595303508,88,-19.06,-169.92,80.6,9.17
388,Husavik,90,IS,1595303509,93,66.04,-17.34,42.8,2.19
389,Erenhot,66,CN,1595303509,19,43.65,111.98,89.38,22.44
390,Luanda,75,AO,1595303328,88,-8.84,13.23,69.8,4.7
391,Vao,93,NC,1595303509,68,-22.67,167.48,68.54,15.68
392,Sakaraha,0,MG,1595303074,72,-22.9,44.53,51.91,3.65
393,Karpogory,81,RU,1595303509,66,64.0,44.45,64.96,5.88
394,Eenhana,0,NA,1595303509,57,-17.47,16.33,50.0,3.36
395,Mount Gambier,73,AU,1595303076,68,-37.83,140.77,53.76,5.61
396,Río Gallegos,40,AR,1595303510,85,-51.62,-69.22,15.8,2.24
397,Mocajuba,20,BR,1595303510,87,-2.58,-49.51,73.11,2.17
398,Aykhal,90,RU,1595303510,93,66.0,111.5,51.8,11.18
399,Pochutla,98,MX,1595303510,86,15.74,-96.47,81.0,3.42
400,Phonhong,75,LA,1595303510,84,18.5,102.42,87.8,2.24
401,Ambon City,75,ID,1595303510,83,-3.7,128.18,84.99,4.7
402,Ugoofaaru,100,MV,1595303510,76,5.67,73.0,83.14,17.36
403,Sosnogorsk,0,RU,1595303510,55,63.6,53.88,63.18,8.32
404,Tahoua,100,NE,1595303511,65,14.89,5.27,82.4,9.17
405,Banda Aceh,100,ID,1595303411,71,5.56,95.32,84.13,2.77
406,Sarangani,29,PH,1595303511,67,5.4,125.46,85.21,6.51
407,San Carlos,97,VE,1595303511,94,9.66,-68.58,73.09,0.98
408,Lafiagi,98,NG,1595303511,92,8.87,5.42,72.0,3.51
409,Simao,100,CN,1595303511,89,22.79,100.97,68.97,3.62
410,Barguzin,3,RU,1595303511,33,53.62,109.62,68.09,7.85
411,Puri,75,IN,1595303511,79,19.8,85.85,87.8,13.87
412,Craig,1,US,1595303512,23,40.52,-107.55,73.4,3.36
413,Noumea,90,NC,1595303495,53,-22.28,166.46,73.4,9.17
414,Henties Bay,0,NA,1595303512,48,-22.12,14.28,62.01,1.01
415,Kargopol',100,RU,1595303512,71,61.51,38.95,60.39,4.47
416,Letlhakane,0,BW,1595303512,86,-21.42,25.58,45.03,5.91
417,Evensk,0,RU,1595303512,40,61.95,159.23,68.95,10.36
418,Merauke,66,ID,1595303513,78,-8.47,140.33,80.19,16.11
419,San Cristobal,100,VE,1595303446,86,7.77,-72.22,65.34,3.78
420,Namanga,52,KE,1595303513,83,-2.54,36.79,57.99,7.56
421,Nānākuli,75,US,1595303513,51,21.39,-158.15,86.0,9.17
422,Den Chai,40,TH,1595303513,79,17.98,100.05,87.01,8.05
423,Tuatapere,80,NZ,1595303513,77,-46.13,167.68,49.96,5.66
424,Zhangaözen,0,KZ,1595303513,20,43.3,52.8,92.3,19.04
425,Bara,100,NG,1595303513,89,10.37,10.73,73.2,10.67
426,Banjar,75,ID,1595303513,100,-8.19,114.97,80.6,16.11
427,Caxito,75,AO,1595303514,88,-8.58,13.66,69.8,4.7
428,Gazojak,0,TM,1595303514,13,41.19,61.4,93.58,18.77
429,Alexandria,20,EG,1595303514,78,31.22,29.96,77.0,9.17
430,Moose Factory,90,CA,1595303514,87,51.26,-80.61,59.0,6.93
431,Toora-Khem,100,RU,1595303514,36,52.47,96.11,78.73,2.01
432,Alghero,0,IT,1595303514,77,40.56,8.32,69.01,3.36
433,Natal,75,BR,1595303514,100,-5.79,-35.21,71.6,4.7
434,Traverse City,1,US,1595303515,77,44.76,-85.62,60.8,2.84
435,Iskateley,0,RU,1595303515,59,67.68,53.15,67.53,7.2
436,Duku,61,NG,1595303515,90,11.24,4.91,74.1,6.53
437,Laguna de Perlas,76,NI,1595303515,87,12.34,-83.67,79.57,7.05
438,Lakes Entrance,5,AU,1595303515,73,-37.88,147.98,55.99,1.01
439,Clyde,49,US,1595303422,64,41.3,-82.98,75.99,1.01
440,Manavālakurichi,20,IN,1595303515,62,8.13,77.3,87.8,2.24
441,Lázaro Cárdenas,9,MX,1595303516,86,17.96,-102.2,80.01,4.61
442,Manay,16,PH,1595303516,66,7.21,126.54,85.69,7.38
443,Broome,1,US,1595303516,60,42.25,-75.83,71.6,3.36
444,Malchin,20,DE,1595303516,87,53.73,12.78,52.0,8.05
445,Mae Sai,90,TH,1595303516,94,20.43,99.88,81.0,4.7
446,Alekseyevsk,2,RU,1595303516,38,57.84,108.35,70.05,4.29
447,Kimbe,19,PG,1595303516,61,-5.55,150.14,88.23,0.96
448,Iqaluit,90,CA,1595303516,100,63.75,-68.51,44.6,8.05
449,Safi,34,MA,1595303516,85,32.3,-9.24,68.67,7.09
450,Vestmanna,39,FO,1595303517,93,62.16,-7.17,48.2,1.12
451,Gogrial,19,SS,1595303517,96,8.53,28.1,68.45,2.82
452,Yegorlykskaya,72,RU,1595303517,68,46.57,40.66,72.79,5.21
453,Bereda,86,ES,1595303517,98,43.27,-7.54,61.0,8.99
454,Ikorodu,40,NG,1595303517,94,6.62,3.5,77.0,3.36
455,Calw,20,DE,1595303517,77,48.71,8.74,61.0,4.7
456,Carndonagh,91,IE,1595303517,88,55.25,-7.27,45.48,5.03
457,Stuttgart,20,DE,1595303517,77,48.78,9.18,61.0,4.7
458,Moyale,85,KE,1595303518,67,3.52,39.06,61.63,8.63
459,Aksarka,94,RU,1595303518,60,66.56,67.8,63.7,8.9
460,Rawson,99,AR,1595303518,79,-43.3,-65.1,44.33,16.67
461,Tari,24,NG,1595303518,77,12.41,4.49,78.49,11.86
462,Ilhabela,0,BR,1595303518,57,-23.78,-45.36,68.72,3.47
463,Zhaotong,91,CN,1595303518,74,27.32,103.72,72.52,7.47
464,Basay,30,PH,1595303518,69,9.41,122.64,85.89,4.45
465,Oakland,31,US,1595303232,81,42.67,-83.4,72.0,1.01
466,Riyadh,83,SA,1595303518,13,24.69,46.72,95.0,8.05
467,Dalby,75,AU,1595303519,42,-27.18,151.27,66.2,10.29
468,Yangi Marg`ilon,0,UZ,1595303519,28,40.43,71.72,84.2,2.24
469,Isangel,20,VU,1595303519,65,-19.55,169.27,77.0,9.17
470,Det Udom,20,TH,1595303519,74,14.91,105.08,90.0,3.36
471,Rūdbār,0,AF,1595303519,12,30.15,62.6,94.1,9.28
472,Guamúchil,92,MX,1595303315,90,25.47,-108.1,78.01,7.0
473,Southbridge,17,US,1595303519,71,42.08,-72.03,73.99,5.97
474,Rome,75,US,1595303409,73,43.21,-75.46,71.6,4.41
475,Departamento de Maldonado,40,UY,1595303519,88,-34.67,-54.92,62.6,6.93
476,Kuusamo,82,FI,1595303520,88,65.97,29.18,64.4,4.7
477,La Rioja,0,ES,1595303520,72,42.25,-2.5,66.2,4.7
478,Honiara,40,SB,1595303520,55,-9.43,159.95,89.6,13.87
479,Gilgit,100,PK,1595303289,49,35.92,74.31,64.04,3.44
480,Todos Santos,1,MX,1595303520,83,23.45,-110.22,75.99,1.01
481,Arrondissement de Langres,2,FR,1595303520,68,47.83,5.33,66.2,9.17
482,Manggar,0,ID,1595303520,70,-2.88,108.27,83.95,13.56
483,Nuevo Laredo,1,MX,1595303521,52,27.48,-99.52,91.4,18.34
484,Outjo,0,NA,1595303521,52,-20.12,16.15,48.24,8.9
485,Olinda,40,BR,1595303521,69,-8.01,-34.86,77.0,8.05
486,Talcahuano,90,CL,1595303521,93,-36.72,-73.12,50.0,5.82
487,Kalat,0,PK,1595303521,22,29.02,66.59,78.69,10.42
488,Samālkha,91,IN,1595303521,70,29.23,77.02,82.33,3.0
489,Samarai,27,PG,1595303521,79,-10.62,150.67,77.47,15.19
490,Azovo,75,RU,1595303522,59,54.7,73.02,62.6,11.18
491,Oussouye,75,SN,1595303522,88,12.48,-16.55,80.6,9.17
492,Quartucciu,0,IT,1595303522,88,39.25,9.18,69.8,5.82
493,Alibag,75,IN,1595303522,89,18.64,72.88,84.2,4.7
494,Kokrajhar,100,IN,1595303522,97,26.4,90.27,76.64,3.49
495,Grindavik,20,IS,1595303522,87,63.84,-22.43,44.6,1.74
496,Turukhansk,100,RU,1595303522,81,65.82,87.98,51.87,8.79
497,Adré,79,TD,1595303523,81,13.47,22.2,71.78,3.89
498,Safaga,3,EG,1595303523,33,26.73,33.94,86.0,8.05
499,Koslan,0,RU,1595303523,63,63.46,48.9,61.36,8.01
500,Yumen,100,CN,1595303523,22,40.28,97.2,83.14,14.16
501,Pitimbu,17,BR,1595303523,80,-7.47,-34.81,74.7,15.43
502,Thunder Bay,20,CA,1595303326,82,48.4,-89.32,60.01,5.82
503,Acatlán,41,MX,1595303523,91,20.15,-98.45,55.56,3.06
504,Oneonta,4,US,1595303523,83,42.45,-75.06,68.0,3.51
505,Sumenep,22,ID,1595303524,62,-7.02,113.87,86.79,15.17
506,Balakhninskiy,100,RU,1595303524,86,58.01,114.28,53.51,5.35
507,Lincoln,20,US,1595303235,73,40.8,-96.67,75.2,5.82
508,Vardø,95,NO,1595303524,100,70.37,31.11,57.2,6.93
509,Ossora,0,RU,1595303524,61,59.24,163.07,56.26,12.57
510,Pemba,75,MZ,1595303524,88,-12.97,40.52,68.0,9.17
511,Beloha,0,MG,1595303524,82,-25.17,45.05,55.44,6.06
512,Águilas,16,ES,1595303524,47,37.41,-1.58,73.99,1.99
513,Betioky,0,MG,1595303525,69,-23.72,44.38,53.96,8.63
514,Biak,5,ID,1595303525,71,-0.91,122.88,82.71,5.95
515,Brookings,75,US,1595303525,93,44.31,-96.8,64.99,6.93
516,Zalţan,0,LY,1595303525,86,32.95,11.87,70.18,5.39
517,Cherdyn',38,RU,1595303525,60,60.4,56.48,61.48,7.65
518,Bonthe,100,SL,1595303525,93,7.53,-12.51,74.66,7.87
519,Vratnica,0,MK,1595303525,87,42.14,21.12,59.0,1.12
520,Tabas,0,IR,1595303525,18,33.6,56.92,91.4,2.24
521,Pasvalys,90,LT,1595303302,100,56.06,24.4,60.8,4.7
522,Prieska,0,ZA,1595303526,48,-29.66,22.75,44.44,1.99
523,Lárdos,0,GR,1595303526,69,36.09,28.02,78.8,10.29
524,São João da Barra,0,BR,1595303526,90,-21.64,-41.05,70.48,10.2
525,Kupang,20,ID,1595303526,45,-10.17,123.58,87.8,13.87
526,Zomba,34,MW,1595303526,98,-15.39,35.32,52.2,2.59
527,Teeli,100,RU,1595303527,55,51.03,90.23,71.47,4.52
528,Cayenne,66,GF,1595303527,100,4.93,-52.33,75.2,9.19
529,Amga,98,RU,1595303527,51,60.9,131.96,72.41,17.72
530,Volchanets,28,RU,1595303527,44,42.91,132.75,84.24,8.66
531,Leh,98,IN,1595303527,39,34.17,77.58,56.41,6.4
532,Fairmont,75,US,1595303527,84,39.49,-80.14,75.99,0.98
533,Atbasar,100,KZ,1595303527,57,51.8,68.33,76.6,6.96
534,Saint-François,74,FR,1595303527,72,46.42,3.91,66.0,2.24
535,Saint-Louis,75,SN,1595303527,83,16.33,-15.0,77.0,11.45
536,Basco,51,PH,1595303528,78,20.45,121.97,85.3,12.55
537,Poyarkovo,0,RU,1595303528,35,49.6,128.68,80.94,9.01
538,Chara,100,RU,1595303528,71,56.91,118.26,55.18,5.88
539,Te Anau,95,NZ,1595303528,86,-45.42,167.72,45.05,9.1
540,Half Moon Bay,90,US,1595303528,93,37.46,-122.43,64.4,4.7
541,Hammerfest,100,NO,1595303377,100,70.66,23.68,51.8,13.87
542,Nardaran,0,AZ,1595303528,70,40.56,50.01,86.0,4.7
543,Kristinestad,55,FI,1595303528,92,62.27,21.38,60.58,5.03
544,Kabarnet,99,KE,1595303528,100,0.49,35.74,55.92,0.85
545,Bahía de Caráquez,96,EC,1595303420,85,-0.6,-80.42,71.24,9.89
546,Beaverlodge,75,CA,1595303529,60,55.22,-119.44,71.6,4.7
547,Neiafu,75,TO,1595303529,88,-18.65,-173.98,78.8,4.7
548,San Angelo,1,US,1595303326,35,31.46,-100.44,89.6,9.17
549,Guasdualito,100,VE,1595303529,94,7.24,-70.73,72.1,2.01
550,Kingisepp,3,RU,1595303529,72,59.37,28.61,63.82,2.35
551,Zyryanka,73,RU,1595303529,34,65.75,150.85,83.16,20.45
552,Baní,90,DO,1595303529,81,18.28,-70.33,77.54,9.62
553,Kieta,6,PG,1595303530,77,-6.22,155.63,83.17,8.86
554,Sabancuy,49,MX,1595303530,83,18.97,-91.18,81.9,12.88
555,Ambilobe,28,MG,1595303530,67,-13.2,49.05,65.68,3.89
556,Dixon,1,US,1595303519,47,38.45,-121.82,78.8,6.93
557,Port Lincoln,92,AU,1595303435,67,-34.73,135.87,54.81,6.69
558,Paulo Afonso,76,BR,1595303530,96,-9.41,-38.21,65.1,5.46
559,Havøysund,100,NO,1595303071,100,71.0,24.66,51.8,13.87
560,Kamaishi,75,JP,1595303530,74,39.27,141.88,78.8,6.93
561,Dicabisagan,52,PH,1595303530,62,17.08,122.42,89.26,6.02
562,Aswān,0,EG,1595303531,21,24.09,32.91,87.35,9.91
563,Atherton,3,GB,1595303531,88,53.52,-2.49,51.01,2.66
564,Chengde,100,CN,1595303414,39,40.97,117.94,89.74,1.3
565,Jieshi,96,CN,1595303531,65,22.81,115.83,86.74,6.06
566,Cravo Norte,100,CO,1595303531,94,6.3,-70.2,72.82,2.51
567,Praia da Vitória,75,PT,1595303531,73,38.73,-27.07,69.8,3.85
568,Vila Franca do Campo,75,PT,1595303531,88,37.72,-25.43,66.2,4.7
